"id","ID Externe","Area_id /ID Externe","department_code","insee_code","zip_code","name","gps_lat","gps_lng","country_id"
35764,"__cities_.fr.00000-00000-35764","__areas__.fr.984-105",984,,,"Îles Saint-Paul et Nouvelle-Amsterdam","-37.8344793","77.554616105458","base.fr"
35765,"__cities_.fr.00000-00000-35765","__areas__.fr.984-105",984,,,"Archipel des Kerguelen","-49.23744195","69.622759036793","base.fr"
35766,"__cities_.fr.00000-00000-35766","__areas__.fr.984-105",984,,,"Archipel des Crozet","-46.4088091","51.0334374","base.fr"
35767,"__cities_.fr.00000-00000-35767","__areas__.fr.984-105",984,,,"La Terre-Adélie","-69.1726389","138.960274","base.fr"
35768,"__cities_.fr.00000-00000-35768","__areas__.fr.984-105",984,,,"Îles Éparses de l'océan Indien","-21.49095335","39.688103701215","base.fr"
35769,"__cities_.fr.00000-00000-35769","__areas__.fr.986-106",986,,,"Alo","9.52028","42.11","base.fr"
35770,"__cities_.fr.00000-00000-35770","__areas__.fr.986-106",986,,,"Wallis et Futuna","-13.8173324","-177.1489649","base.fr"
35771,"__cities_.fr.00000-00000-35771","__areas__.fr.986-106",986,,,"Uvea","-13.2544939","-176.2578265","base.fr"
35773,"__cities_.fr.00000-00000-35773","__areas__.fr.987-107",987,,,"Arue","-17.5310837","-149.517568","base.fr"
35774,"__cities_.fr.00000-00000-35774","__areas__.fr.987-107",987,,,"Arutua","-15.52521455","-146.52681098338","base.fr"
35776,"__cities_.fr.00000-00000-35776","__areas__.fr.987-107",987,,,"Faaa","-17.582274","-149.56780299593","base.fr"
35777,"__cities_.fr.00000-00000-35777","__areas__.fr.987-107",987,,,"Fakarava","-16.2926551","-145.60776814117","base.fr"
35778,"__cities_.fr.00000-00000-35778","__areas__.fr.987-107",987,,,"Fangatau","-15.8209958","-140.86638969106","base.fr"
35779,"__cities_.fr.00000-00000-35779","__areas__.fr.987-107",987,,,"Fatu-Hiva","-10.4862581","-138.64575737633","base.fr"
35780,"__cities_.fr.00000-00000-35780","__areas__.fr.987-107",987,,,"Gambier","-23.1571641","-134.9540922","base.fr"
35781,"__cities_.fr.00000-00000-35781","__areas__.fr.987-107",987,,,"Hao","-18.2523103","-140.88980557791","base.fr"
35782,"__cities_.fr.00000-00000-35782","__areas__.fr.987-107",987,,,"Hikueru","-17.6069335","-142.60718271294","base.fr"
35783,"__cities_.fr.00000-00000-35783","__areas__.fr.987-107",987,,,"Hitiaa O Te Ra","-17.59146725","-149.38326867247","base.fr"
35784,"__cities_.fr.00000-00000-35784","__areas__.fr.987-107",987,,,"Hiva-Oa","-9.77936775","-139.0064592035","base.fr"
35787,"__cities_.fr.00000-00000-35787","__areas__.fr.987-107",987,,,"Makemo","-16.58841295","-143.63502715735","base.fr"
35788,"__cities_.fr.00000-00000-35788","__areas__.fr.987-107",987,,,"Manihi","-14.39678675","-145.89067809459","base.fr"
35791,"__cities_.fr.00000-00000-35791","__areas__.fr.987-107",987,,,"Napuka","-14.1696989","-141.16520954472","base.fr"
35792,"__cities_.fr.00000-00000-35792","__areas__.fr.987-107",987,,,"Nuku-Hiva","-8.8734097","-140.12448282026","base.fr"
35793,"__cities_.fr.00000-00000-35793","__areas__.fr.987-107",987,,,"Nukutavake","-19.2769352","-138.82504247591","base.fr"
35794,"__cities_.fr.00000-00000-35794","__areas__.fr.987-107",987,,,"Paea","-17.6988547","-149.5545374153","base.fr"
35795,"__cities_.fr.00000-00000-35795","__areas__.fr.987-107",987,,,"Papara","-17.7611449","-149.504235","base.fr"
35796,"__cities_.fr.00000-00000-35796","__areas__.fr.987-107",987,,,"Papeete","-17.5384014","-149.5661868","base.fr"
35797,"__cities_.fr.00000-00000-35797","__areas__.fr.987-107",987,,,"Pirae","-17.5376926","-149.5420812","base.fr"
35798,"__cities_.fr.00000-00000-35798","__areas__.fr.987-107",987,,,"Pukapuka","-14.8187829","-138.82199727445","base.fr"
35799,"__cities_.fr.00000-00000-35799","__areas__.fr.987-107",987,,,"Punaauia","-17.5929204","-149.6063669","base.fr"
35800,"__cities_.fr.00000-00000-35800","__areas__.fr.987-107",987,,,"Raivavae","-23.86869275","-147.64365348773","base.fr"
35801,"__cities_.fr.00000-00000-35801","__areas__.fr.987-107",987,,,"Rangiroa","-15.1224461","-147.54620895959","base.fr"
35802,"__cities_.fr.00000-00000-35802","__areas__.fr.987-107",987,,,"Rapa","-27.6099638","-144.34135412681","base.fr"
35803,"__cities_.fr.00000-00000-35803","__areas__.fr.987-107",987,,,"Reao","-18.5223364","-136.37793166149","base.fr"
35804,"__cities_.fr.00000-00000-35804","__areas__.fr.987-107",987,,,"Rimatara","-22.6504839","-152.80661071313","base.fr"
35806,"__cities_.fr.00000-00000-35806","__areas__.fr.987-107",987,,,"Tahaa","-16.63084745","-151.50391865273","base.fr"
35807,"__cities_.fr.00000-00000-35807","__areas__.fr.987-107",987,,,"Tahuata","-9.95733445","-139.09987128841","base.fr"
35809,"__cities_.fr.00000-00000-35809","__areas__.fr.987-107",987,,,"Taiarapu-Ouest","-17.81075795","-149.24925127569","base.fr"
35810,"__cities_.fr.00000-00000-35810","__areas__.fr.987-107",987,,,"Takaroa","-14.44654775","-144.90704378341","base.fr"
35811,"__cities_.fr.00000-00000-35811","__areas__.fr.987-107",987,,,"Taputapuatea","-16.8418409","-151.4023285","base.fr"
35813,"__cities_.fr.00000-00000-35813","__areas__.fr.987-107",987,,,"Teva I Uta","-17.7154281","-149.40239684478","base.fr"
35814,"__cities_.fr.00000-00000-35814","__areas__.fr.987-107",987,,,"Tubuai","-23.3728599","-149.4826240237","base.fr"
35815,"__cities_.fr.00000-00000-35815","__areas__.fr.987-107",987,,,"Tumaraa","-16.8034692","-151.4643798","base.fr"
35817,"__cities_.fr.00000-00000-35817","__areas__.fr.987-107",987,,,"Ua-Huka","-8.91005275","-139.55126154739","base.fr"
35818,"__cities_.fr.00000-00000-35818","__areas__.fr.987-107",987,,,"Ua-Pou","-9.4011139","-140.07992547366","base.fr"
35824,"__cities_.fr.00000-00000-35824","__areas__.fr.988-108",988,,,"Dumbéa","-22.1676665","166.4580117","base.fr"
35830,"__cities_.fr.00000-00000-35830","__areas__.fr.988-108",988,,,"Koné","-21.03776795","164.91562180544","base.fr"
35833,"__cities_.fr.00000-00000-35833","__areas__.fr.988-108",988,,,"Lifou","-20.93253465","167.16586048218","base.fr"
35834,"__cities_.fr.00000-00000-35834","__areas__.fr.988-108",988,,,"Maré","-21.50375975","167.98410814253","base.fr"
35836,"__cities_.fr.00000-00000-35836","__areas__.fr.988-108",988,,,"Mont-Dore","-22.2265112","166.5255445","base.fr"
35840,"__cities_.fr.00000-00000-35840","__areas__.fr.988-108",988,,,"Païta","-22.1311499","166.3678601","base.fr"
35853,"__cities_.fr.00000-00000-35853","__areas__.fr.989-109",989,,,"Île de Clipperton","10.30364715","-109.21632150729","base.fr"
35762,"__cities_.fr.00000-97133-35762","__areas__.fr.977-103",977,,97133,"Saint-Barthélemy","17.9036287","-62.811568843007","base.fr"
35763,"__cities_.fr.00000-97150-35763","__areas__.fr.978-104",978,,97150,"Saint-Martin","18.06477605","-63.049215961528","base.fr"
35760,"__cities_.fr.00000-97500-35760","__areas__.fr.975-102",975,,97500,"Miquelon-Langlade","46.96379525","-56.326214470567","base.fr"
35761,"__cities_.fr.00000-97500-35761","__areas__.fr.975-102",975,,97500,"Saint-Pierre","46.7774872","-56.1767706","base.fr"
35786,"__cities_.fr.00000-98709-35786","__areas__.fr.987-107",987,,98709,"Mahina","-17.5058578","-149.4873979","base.fr"
35808,"__cities_.fr.00000-98720-35808","__areas__.fr.987-107",987,,98720,"Taiarapu-Est","-17.75329935","-149.23440221236","base.fr"
35790,"__cities_.fr.00000-98729-35790","__areas__.fr.987-107",987,,98729,"Moorea-Maiao","-17.53326075","-149.83862470694","base.fr"
35775,"__cities_.fr.00000-98730-35775","__areas__.fr.987-107",987,,98730,"Bora-Bora","-16.5041692","-151.73666198681","base.fr"
35785,"__cities_.fr.00000-98731-35785","__areas__.fr.987-107",987,,98731,"Huahine","-16.7285089","-151.01345513312","base.fr"
35789,"__cities_.fr.00000-98732-35789","__areas__.fr.987-107",987,,98732,"Maupiti","-16.443877","-152.2567561","base.fr"
35819,"__cities_.fr.00000-98735-35819","__areas__.fr.987-107",987,,98735,"Uturoa","-16.7215582","-151.4492168","base.fr"
35805,"__cities_.fr.00000-98753-35805","__areas__.fr.987-107",987,,98753,"Rurutu","-22.47805395","-151.33712143564","base.fr"
35772,"__cities_.fr.00000-98760-35772","__areas__.fr.987-107",987,,98760,"Anaa","-16.9419074","-144.86461724826","base.fr"
35812,"__cities_.fr.00000-98783-35812","__areas__.fr.987-107",987,,98783,"Tatakoto","-17.3447122","-138.39225979366","base.fr"
35816,"__cities_.fr.00000-98784-35816","__areas__.fr.987-107",987,,98784,"Tureia","-20.82680785","-138.53960671101","base.fr"
35837,"__cities_.fr.00000-98800-35837","__areas__.fr.988-108",988,,98800,"Nouméa","-22.2745264","166.442419","base.fr"
35820,"__cities_.fr.00000-98811-35820","__areas__.fr.988-108",988,,98811,"Belep","-19.70321915","163.65478523803","base.fr"
35821,"__cities_.fr.00000-98812-35821","__areas__.fr.988-108",988,,98812,"Bouloupari","-21.8629851","166.0509591","base.fr"
35823,"__cities_.fr.00000-98813-35823","__areas__.fr.988-108",988,,98813,"Canala","-21.5204365","165.9648423","base.fr"
35839,"__cities_.fr.00000-98814-35839","__areas__.fr.988-108",988,,98814,"Ouvéa","-20.40773635","166.53643282922","base.fr"
35826,"__cities_.fr.00000-98815-35826","__areas__.fr.988-108",988,,98815,"Hienghène","-20.6893694","164.9440366","base.fr"
35827,"__cities_.fr.00000-98816-35827","__areas__.fr.988-108",988,,98816,"Houaïlou","-21.2787028","165.6270461","base.fr"
35829,"__cities_.fr.00000-98817-35829","__areas__.fr.988-108",988,,98817,"Kaala-Gomen","-20.6679308","164.3959969","base.fr"
35852,"__cities_.fr.00000-98818-35852","__areas__.fr.988-108",988,,98818,"Kouaoua","-21.3961813","165.8284467","base.fr"
35835,"__cities_.fr.00000-98819-35835","__areas__.fr.988-108",988,,98819,"Moindou","-21.6924288","165.6770199","base.fr"
35838,"__cities_.fr.00000-98821-35838","__areas__.fr.988-108",988,,98821,"Ouégoa","-20.344958","164.4388081","base.fr"
35841,"__cities_.fr.00000-98822-35841","__areas__.fr.988-108",988,,98822,"Poindimié","-20.9369364","165.3342587","base.fr"
35842,"__cities_.fr.00000-98823-35842","__areas__.fr.988-108",988,,98823,"Ponérihouen","-21.0719866","165.402493","base.fr"
35843,"__cities_.fr.00000-98824-35843","__areas__.fr.988-108",988,,98824,"Pouébo","-20.3907632","164.5778495","base.fr"
35844,"__cities_.fr.00000-98825-35844","__areas__.fr.988-108",988,,98825,"Pouembout","-21.121706","164.896649","base.fr"
35845,"__cities_.fr.00000-98826-35845","__areas__.fr.988-108",988,,98826,"Poum","-20.2316547","164.029894","base.fr"
35846,"__cities_.fr.00000-98827-35846","__areas__.fr.988-108",988,,98827,"Poya","-21.3463283","165.1590583","base.fr"
35848,"__cities_.fr.00000-98829-35848","__areas__.fr.988-108",988,,98829,"Thio","-21.6115836","166.2155524","base.fr"
35849,"__cities_.fr.00000-98831-35849","__areas__.fr.988-108",988,,98831,"Touho","-20.7805376","165.2328146","base.fr"
35828,"__cities_.fr.00000-98832-35828","__areas__.fr.988-108",988,,98832,"Île-des-Pins","-22.60491185","167.46835212806","base.fr"
35850,"__cities_.fr.00000-98833-35850","__areas__.fr.988-108",988,,98833,"Voh","-20.9499628","164.6871864","base.fr"
35851,"__cities_.fr.00000-98834-35851","__areas__.fr.988-108",988,,98834,"Yaté","-22.1593698","166.9442699","base.fr"
35831,"__cities_.fr.00000-98850-35831","__areas__.fr.988-108",988,,98850,"Koumac","-20.5613596","164.2811715","base.fr"
35822,"__cities_.fr.00000-98870-35822","__areas__.fr.988-108",988,,98870,"Bourail","-21.5669549","165.4968115","base.fr"
35832,"__cities_.fr.00000-98880-35832","__areas__.fr.988-108",988,,98880,"La Foa","-21.709921","165.8261772","base.fr"
35825,"__cities_.fr.00000-98881-35825","__areas__.fr.988-108",988,,98881,"Farino","-21.6678687","165.7752913","base.fr"
35847,"__cities_.fr.00000-98882-35847","__areas__.fr.988-108",988,,98882,"Sarraméa","-21.6399906","165.8535314","base.fr"
1,"__cities_.fr.01001-01400-00001","__areas__.fr.001-001",1,1001,1400,"L'Abergement-Clémenciat","46.156781992032","4.9246992031872","base.fr"
2,"__cities_.fr.01002-01640-00002","__areas__.fr.001-001",1,1002,1640,"L'Abergement-de-Varey","46.010085625","5.4287591666667","base.fr"
3,"__cities_.fr.01004-01500-00003","__areas__.fr.001-001",1,1004,1500,"Ambérieu-en-Bugey","45.958409392265","5.3759920441989","base.fr"
4,"__cities_.fr.01005-01330-00004","__areas__.fr.001-001",1,1005,1330,"Ambérieux-en-Dombes","46.000120392157","4.9106016993464","base.fr"
5,"__cities_.fr.01006-01300-00005","__areas__.fr.001-001",1,1006,1300,"Ambléon","45.746426904762","5.6024917857143","base.fr"
6,"__cities_.fr.01007-01500-00006","__areas__.fr.001-001",1,1007,1500,"Ambronay","46.001447160494","5.3665422839506","base.fr"
7,"__cities_.fr.01008-01500-00007","__areas__.fr.001-001",1,1008,1500,"Ambutrix","45.935983243243","5.3318304054054","base.fr"
8,"__cities_.fr.01009-01300-00008","__areas__.fr.001-001",1,1009,1300,"Andert-et-Condon","45.786471006711","5.6574418120805","base.fr"
9,"__cities_.fr.01010-01350-00009","__areas__.fr.001-001",1,1010,1350,"Anglefort","45.919375342466","5.7890420547945","base.fr"
10,"__cities_.fr.01011-01100-00010","__areas__.fr.001-001",1,1011,1100,"Apremont","46.20755872093","5.6599165116279","base.fr"
11,"__cities_.fr.01012-01110-00011","__areas__.fr.001-001",1,1012,1110,"Aranc","46.004818529412","5.5040175490196","base.fr"
12,"__cities_.fr.01013-01230-00012","__areas__.fr.001-001",1,1013,1230,"Arandas","45.891865","5.493098030303","base.fr"
13,"__cities_.fr.01014-01100-00013","__areas__.fr.001-001",1,1014,1100,"Arbent","46.28619369863","5.6875171232877","base.fr"
14,"__cities_.fr.01015-01300-00014","__areas__.fr.001-001",1,1015,1300,"Arboys en Bugey","45.717191583012","5.6445241698842","base.fr"
15,"__cities_.fr.01016-01190-00015","__areas__.fr.001-001",1,1016,1190,"Arbigny","46.475566101695","4.9695481355932","base.fr"
16,"__cities_.fr.01017-01230-00016","__areas__.fr.001-001",1,1017,1230,"Argis","45.935171958763","5.4816940206186","base.fr"
17,"__cities_.fr.01019-01510-00017","__areas__.fr.001-001",1,1019,1510,"Armix","45.856628636364","5.5744975","base.fr"
18,"__cities_.fr.01021-01480-00018","__areas__.fr.001-001",1,1021,1480,"Ars-sur-Formans","45.99437625","4.8191379166667","base.fr"
19,"__cities_.fr.01022-01510-00019","__areas__.fr.001-001",1,1022,1510,"Artemare","45.869468571429","5.692361978022","base.fr"
20,"__cities_.fr.01023-01570-00020","__areas__.fr.001-001",1,1023,1570,"Asnières-sur-Saône","46.386086545455","4.8860641818182","base.fr"
21,"__cities_.fr.01024-01340-00021","__areas__.fr.001-001",1,1024,1340,"Attignat","46.285858903509","5.1816493421053","base.fr"
22,"__cities_.fr.01025-01380-00022","__areas__.fr.001-001",1,1025,1380,"Bâgé-Dommartin","46.3223375","4.957910975","base.fr"
23,"__cities_.fr.01026-01380-00023","__areas__.fr.001-001",1,1026,1380,"Bâgé-le-Châtel","46.307906444444","4.9295675555556","base.fr"
24,"__cities_.fr.01027-01360-00024","__areas__.fr.001-001",1,1027,1360,"Balan","45.82999739726","5.1021565753425","base.fr"
25,"__cities_.fr.01028-01990-00025","__areas__.fr.001-001",1,1028,1990,"Baneins","46.119529107143","4.9065755357143","base.fr"
26,"__cities_.fr.01029-01270-00026","__areas__.fr.001-001",1,1029,1270,"Beaupont","46.42501007874","5.2629440419947","base.fr"
27,"__cities_.fr.01030-01480-00027","__areas__.fr.001-001",1,1030,1480,"Beauregard","46.000953478261","4.7569539130435","base.fr"
28,"__cities_.fr.01031-01100-00028","__areas__.fr.001-001",1,1031,1100,"Bellignat","46.241422380952","5.639985","base.fr"
29,"__cities_.fr.01032-01360-00029","__areas__.fr.001-001",1,1032,1360,"Béligneux","45.86536266055","5.1327606422018","base.fr"
30,"__cities_.fr.01033-01200-00030","__areas__.fr.001-001",1,1033,1200,"Bellegarde-sur-Valserine","46.104923591837","5.8248288163265","base.fr"
31,"__cities_.fr.01034-01300-00031","__areas__.fr.001-001",1,1034,1300,"Belley","45.747806201923","5.6815619230769","base.fr"
32,"__cities_.fr.01035-01130-00032","__areas__.fr.001-001",1,1035,1130,"Belleydoux","46.255558275862","5.7790405747126","base.fr"
33,"__cities_.fr.01036-01260-00033","__areas__.fr.001-001",1,1036,1260,"Belmont-Luthézieu","45.892246890244","5.6570448170732","base.fr"
34,"__cities_.fr.01037-01470-00034","__areas__.fr.001-001",1,1037,1470,"Bénonces","45.835735223881","5.4786748507463","base.fr"
35,"__cities_.fr.01038-01370-00035","__areas__.fr.001-001",1,1038,1370,"Bény","46.321481714286","5.2847496190476","base.fr"
36,"__cities_.fr.01039-01350-00036","__areas__.fr.001-001",1,1039,1350,"Béon","45.858390206186","5.7458564948454","base.fr"
37,"__cities_.fr.01040-01340-00037","__areas__.fr.001-001",1,1040,1340,"Béréziat","46.368759272727","5.0407462424242","base.fr"
38,"__cities_.fr.01041-01500-00038","__areas__.fr.001-001",1,1041,1500,"Bettant","45.93878122449","5.365597755102","base.fr"
39,"__cities_.fr.01042-01290-00039","__areas__.fr.001-001",1,1042,1290,"Bey","46.217906547619","4.8453710714286","base.fr"
40,"__cities_.fr.01043-01700-00040","__areas__.fr.001-001",1,1043,1700,"Beynost","45.84200389313","4.9964673282443","base.fr"
41,"__cities_.fr.01044-01200-00041","__areas__.fr.001-001",1,1044,1200,"Billiat","46.077800909091","5.772225974026","base.fr"
42,"__cities_.fr.01045-01330-00042","__areas__.fr.001-001",1,1045,1330,"Birieux","45.95549015873","5.039526984127","base.fr"
43,"__cities_.fr.01046-01290-00043","__areas__.fr.001-001",1,1046,1290,"Biziat","46.22892","4.9445275572519","base.fr"
44,"__cities_.fr.01047-01150-00044","__areas__.fr.001-001",1,1047,1150,"Blyes","45.843565263158","5.2492607894737","base.fr"
45,"__cities_.fr.01049-01120-00045","__areas__.fr.001-001",1,1049,1120,"La Boisse","45.84861648","5.02185976","base.fr"
46,"__cities_.fr.01050-01190-00046","__areas__.fr.001-001",1,1050,1190,"Boissey","46.3812","4.996962","base.fr"
47,"__cities_.fr.01050-01380-00047","__areas__.fr.001-001",1,1050,1380,"Boissey","46.3812","4.996962","base.fr"
48,"__cities_.fr.01051-01450-00048","__areas__.fr.001-001",1,1051,1450,"Bolozon","46.196338089888","5.4674457303371","base.fr"
49,"__cities_.fr.01052-01330-00049","__areas__.fr.001-001",1,1052,1330,"Bouligneux","46.021790328638","4.9993523474178","base.fr"
50,"__cities_.fr.01053-01000-00050","__areas__.fr.001-001",1,1053,1000,"Bourg-en-Bresse","46.20744972067","5.2461237430168","base.fr"
51,"__cities_.fr.01054-01800-00051","__areas__.fr.001-001",1,1054,1800,"Bourg-Saint-Christophe","45.88773872093","5.1411945348837","base.fr"
52,"__cities_.fr.01056-01640-00052","__areas__.fr.001-001",1,1056,1640,"Boyeux-Saint-Jérôme","46.034943149171","5.4565408287293","base.fr"
53,"__cities_.fr.01057-01190-00053","__areas__.fr.001-001",1,1057,1190,"Boz","46.406688461538","4.9145222115385","base.fr"
54,"__cities_.fr.01058-01300-00054","__areas__.fr.001-001",1,1058,1300,"Brégnier-Cordon","45.642557962963","5.6218911111111","base.fr"
55,"__cities_.fr.01059-01260-00055","__areas__.fr.001-001",1,1059,1260,"Brénaz","45.9507006","5.7319224","base.fr"
56,"__cities_.fr.01060-01110-00056","__areas__.fr.001-001",1,1060,1110,"Brénod","46.079860253165","5.6245641139241","base.fr"
57,"__cities_.fr.01061-01300-00057","__areas__.fr.001-001",1,1061,1300,"Brens","45.716478","5.6952011428571","base.fr"
58,"__cities_.fr.01062-01360-00058","__areas__.fr.001-001",1,1062,1360,"Bressolles","45.871669416058","5.1005599270073","base.fr"
59,"__cities_.fr.01063-01460-00059","__areas__.fr.001-001",1,1063,1460,"Brion","46.164567419355","5.5459588709677","base.fr"
60,"__cities_.fr.01064-01470-00060","__areas__.fr.001-001",1,1064,1470,"Briord","45.778150092593","5.4907816666667","base.fr"
61,"__cities_.fr.01065-01310-00061","__areas__.fr.001-001",1,1065,1310,"Buellas","46.211549901961","5.1450947058824","base.fr"
62,"__cities_.fr.01066-01510-00062","__areas__.fr.001-001",1,1066,1510,"La Burbanche","45.865082553191","5.5447043617021","base.fr"
63,"__cities_.fr.01067-01430-00063","__areas__.fr.001-001",1,1067,1430,"Ceignes","46.122940705882","5.4945695294118","base.fr"
64,"__cities_.fr.01068-01450-00064","__areas__.fr.001-001",1,1068,1450,"Cerdon","46.074992025316","5.4736034177215","base.fr"
65,"__cities_.fr.01069-01240-00065","__areas__.fr.001-001",1,1069,1240,"Certines","46.132655","5.2654237837838","base.fr"
66,"__cities_.fr.01071-01170-00066","__areas__.fr.001-001",1,1071,1170,"Cessy","46.317985422535","6.0760071126761","base.fr"
67,"__cities_.fr.01072-01250-00067","__areas__.fr.001-001",1,1072,1250,"Ceyzériat","46.18357864","5.31511216","base.fr"
68,"__cities_.fr.01073-01350-00068","__areas__.fr.001-001",1,1073,1350,"Ceyzérieu","45.832576010638","5.7116832446808","base.fr"
69,"__cities_.fr.01074-01320-00069","__areas__.fr.001-001",1,1074,1320,"Chalamont","46.002631512605","5.173992605042","base.fr"
70,"__cities_.fr.01075-01480-00070","__areas__.fr.001-001",1,1075,1480,"Chaleins","46.034425041322","4.7996861983471","base.fr"
71,"__cities_.fr.01076-01230-00071","__areas__.fr.001-001",1,1076,1230,"Chaley","45.956394255319","5.544979893617","base.fr"
72,"__cities_.fr.01077-01450-00072","__areas__.fr.001-001",1,1077,1450,"Challes-la-Montagne","46.123219901961","5.4601503921569","base.fr"
73,"__cities_.fr.01078-01630-00073","__areas__.fr.001-001",1,1078,1630,"Challex","46.175373944954","5.9679271559633","base.fr"
74,"__cities_.fr.01079-01260-00074","__areas__.fr.001-001",1,1079,1260,"Champagne-en-Valromey","45.931606372093","5.6934707441861","base.fr"
75,"__cities_.fr.01080-01110-00075","__areas__.fr.001-001",1,1080,1110,"Champdor-Corcelles","46.032686575342","5.575461369863","base.fr"
76,"__cities_.fr.01081-01410-00076","__areas__.fr.001-001",1,1081,1410,"Champfromier","46.220618641975","5.8242741358025","base.fr"
77,"__cities_.fr.01082-01420-00077","__areas__.fr.001-001",1,1082,1420,"Chanay","46.001900603448","5.7795182758621","base.fr"
78,"__cities_.fr.01083-01990-00078","__areas__.fr.001-001",1,1083,1990,"Chaneins","46.088803267327","4.8552178217822","base.fr"
79,"__cities_.fr.01084-01400-00079","__areas__.fr.001-001",1,1084,1400,"Chanoz-Châtenay","46.187230382166","5.0270835031847","base.fr"
80,"__cities_.fr.01085-01240-00080","__areas__.fr.001-001",1,1085,1240,"La Chapelle-du-Châtelard","46.07192394636","5.0238535249042","base.fr"
81,"__cities_.fr.01087-01130-00081","__areas__.fr.001-001",1,1087,1130,"Charix","46.188639444444","5.683287","base.fr"
82,"__cities_.fr.01088-01800-00082","__areas__.fr.001-001",1,1088,1800,"Charnoz-sur-Ain","45.873123802817","5.2199981690141","base.fr"
83,"__cities_.fr.01089-01500-00083","__areas__.fr.001-001",1,1089,1500,"Château-Gaillard","45.964916548673","5.3028414159292","base.fr"
84,"__cities_.fr.01090-01320-00084","__areas__.fr.001-001",1,1090,1320,"Châtenay","46.027040620155","5.2063486821705","base.fr"
85,"__cities_.fr.01091-01200-00085","__areas__.fr.001-001",1,1091,1200,"Châtillon-en-Michaille","46.129789519231","5.7723086538462","base.fr"
86,"__cities_.fr.01092-01320-00086","__areas__.fr.001-001",1,1092,1320,"Châtillon-la-Palud","45.973948055556","5.2385538194444","base.fr"
87,"__cities_.fr.01093-01400-00087","__areas__.fr.001-001",1,1093,1400,"Châtillon-sur-Chalaronne","46.121240208333","4.9594278125","base.fr"
88,"__cities_.fr.01094-01190-00088","__areas__.fr.001-001",1,1094,1190,"Chavannes-sur-Reyssouze","46.436287058824","5.0009959558823","base.fr"
89,"__cities_.fr.01095-01250-00089","__areas__.fr.001-001",1,1095,1250,"Nivigne et Suran","46.287250322581","5.4291164919355","base.fr"
90,"__cities_.fr.01096-01660-00090","__areas__.fr.001-001",1,1096,1660,"Chaveyriat","46.203152298851","5.05054","base.fr"
91,"__cities_.fr.01097-01510-00091","__areas__.fr.001-001",1,1097,1510,"Chavornay","45.882759880952","5.7273460714286","base.fr"
92,"__cities_.fr.01098-01300-00092","__areas__.fr.001-001",1,1098,1300,"Chazey-Bons","45.802649","5.681342","base.fr"
93,"__cities_.fr.01098-01510-00093","__areas__.fr.001-001",1,1098,1510,"Chazey-Bons","45.802649","5.681342","base.fr"
94,"__cities_.fr.01099-01150-00094","__areas__.fr.001-001",1,1099,1150,"Chazey-sur-Ain","45.897791764706","5.257502254902","base.fr"
95,"__cities_.fr.01100-01510-00095","__areas__.fr.001-001",1,1100,1510,"Cheignieu-la-Balme","45.821699632353","5.6004818382353","base.fr"
96,"__cities_.fr.01101-01430-00096","__areas__.fr.001-001",1,1101,1430,"Chevillard","46.109148734177","5.579233164557","base.fr"
97,"__cities_.fr.01102-01190-00097","__areas__.fr.001-001",1,1102,1190,"Chevroux","46.382223136095","4.9651795857988","base.fr"
98,"__cities_.fr.01103-01170-00098","__areas__.fr.001-001",1,1103,1170,"Chevry","46.28400972973","6.0452245045045","base.fr"
99,"__cities_.fr.01104-01200-00099","__areas__.fr.001-001",1,1104,1200,"Chézery-Forens","46.1202119","5.7896126","base.fr"
100,"__cities_.fr.01104-01410-00100","__areas__.fr.001-001",1,1104,1410,"Chézery-Forens","46.223054","5.868303","base.fr"
101,"__cities_.fr.01105-01390-00101","__areas__.fr.001-001",1,1105,1390,"Civrieux","45.918154210526","4.8847947368421","base.fr"
102,"__cities_.fr.01106-01250-00102","__areas__.fr.001-001",1,1106,1250,"Cize","46.198540517241","5.4512146551724","base.fr"
103,"__cities_.fr.01107-01230-00103","__areas__.fr.001-001",1,1107,1230,"Cleyzieu","45.902384545455","5.4327284848485","base.fr"
104,"__cities_.fr.01108-01270-00104","__areas__.fr.001-001",1,1108,1270,"Coligny","46.384596901961","5.326589372549","base.fr"
105,"__cities_.fr.01109-01550-00105","__areas__.fr.001-001",1,1109,1550,"Collonges","46.14152784","5.90460952","base.fr"
106,"__cities_.fr.01110-01300-00106","__areas__.fr.001-001",1,1110,1300,"Colomieu","45.738500285714","5.6265590476191","base.fr"
107,"__cities_.fr.01111-01230-00107","__areas__.fr.001-001",1,1111,1230,"Conand","45.890008978102","5.4713902919708","base.fr"
108,"__cities_.fr.01112-01430-00108","__areas__.fr.001-001",1,1112,1430,"Condamine","46.104543084112","5.5582528037383","base.fr"
109,"__cities_.fr.01113-01400-00109","__areas__.fr.001-001",1,1113,1400,"Condeissiat","46.1521226875","5.087552125","base.fr"
110,"__cities_.fr.01114-01200-00110","__areas__.fr.001-001",1,1114,1200,"Confort","46.156618163265","5.8304369387755","base.fr"
111,"__cities_.fr.01115-01310-00111","__areas__.fr.001-001",1,1115,1310,"Confrançon","46.2677990625","5.0631065","base.fr"
112,"__cities_.fr.01116-01300-00112","__areas__.fr.001-001",1,1116,1300,"Contrevoz","45.803002392345","5.6211401435407","base.fr"
113,"__cities_.fr.01117-01300-00113","__areas__.fr.001-001",1,1117,1300,"Conzieu","45.727867105263","5.606319868421","base.fr"
114,"__cities_.fr.01118-01420-00114","__areas__.fr.001-001",1,1118,1420,"Corbonod","45.972412773723","5.7880016058394","base.fr"
115,"__cities_.fr.01121-01110-00115","__areas__.fr.001-001",1,1121,1110,"Corlier","46.032718194444","5.4985325","base.fr"
116,"__cities_.fr.01122-01110-00116","__areas__.fr.001-001",1,1122,1110,"Cormaranche-en-Bugey","45.947902282609","5.61038","base.fr"
117,"__cities_.fr.01123-01290-00117","__areas__.fr.001-001",1,1123,1290,"Cormoranche-sur-Saône","46.23802942623","4.8349332786885","base.fr"
118,"__cities_.fr.01124-01560-00118","__areas__.fr.001-001",1,1124,1560,"Cormoz","46.433602965779","5.2256662357414","base.fr"
119,"__cities_.fr.01125-01250-00119","__areas__.fr.001-001",1,1125,1250,"Corveissiat","46.254723069767","5.4688593953488","base.fr"
120,"__cities_.fr.01127-01370-00120","__areas__.fr.001-001",1,1127,1370,"Courmangoux","46.326120622407","5.3504300414938","base.fr"
121,"__cities_.fr.01128-01560-00121","__areas__.fr.001-001",1,1128,1560,"Courtes","46.457129483871","5.1139603870968","base.fr"
122,"__cities_.fr.01129-01320-00122","__areas__.fr.001-001",1,1129,1320,"Crans","45.965866390244","5.1933110731707","base.fr"
123,"__cities_.fr.01130-01340-00123","__areas__.fr.001-001",1,1130,1340,"Cras-sur-Reyssouze","46.313415243243","5.1783688648649","base.fr"
124,"__cities_.fr.01133-01350-00124","__areas__.fr.001-001",1,1133,1350,"Cressin-Rochefort","45.784325921053","5.7588935526316","base.fr"
125,"__cities_.fr.01134-01290-00125","__areas__.fr.001-001",1,1134,1290,"Crottet","46.277172","4.892867","base.fr"
126,"__cities_.fr.01134-01750-00126","__areas__.fr.001-001",1,1134,1750,"Crottet","46.3070867","4.8676037","base.fr"
127,"__cities_.fr.01135-01170-00127","__areas__.fr.001-001",1,1135,1170,"Crozet","46.290464240506","6.0029505696202","base.fr"
128,"__cities_.fr.01136-01290-00128","__areas__.fr.001-001",1,1136,1290,"Cruzilles-lès-Mépillat","46.221429230769","4.8756563636364","base.fr"
129,"__cities_.fr.01138-01350-00129","__areas__.fr.001-001",1,1138,1350,"Culoz","45.855868235294","5.7754341176471","base.fr"
130,"__cities_.fr.01139-01560-00130","__areas__.fr.001-001",1,1139,1560,"Curciat-Dongalon","46.488223573883","5.1661274570447","base.fr"
131,"__cities_.fr.01140-01310-00131","__areas__.fr.001-001",1,1140,1310,"Curtafond","46.273678142077","5.1037170491803","base.fr"
132,"__cities_.fr.01141-01300-00132","__areas__.fr.001-001",1,1141,1300,"Cuzieu","45.818852688172","5.6798859139785","base.fr"
133,"__cities_.fr.01142-01120-00133","__areas__.fr.001-001",1,1142,1120,"Dagneux","45.85737752809","5.0744668539326","base.fr"
134,"__cities_.fr.01143-01220-00134","__areas__.fr.001-001",1,1143,1220,"Divonne-les-Bains","46.37205265","6.11931745","base.fr"
135,"__cities_.fr.01145-01240-00135","__areas__.fr.001-001",1,1145,1240,"Dompierre-sur-Veyle","46.065636772487","5.2151875661376","base.fr"
136,"__cities_.fr.01146-01400-00136","__areas__.fr.001-001",1,1146,1400,"Dompierre-sur-Chalaronne","46.143917279412","4.9006142647059","base.fr"
137,"__cities_.fr.01147-01270-00137","__areas__.fr.001-001",1,1147,1270,"Domsure","46.424201433121","5.2931132165605","base.fr"
138,"__cities_.fr.01148-01590-00138","__areas__.fr.001-001",1,1148,1590,"Dortan","46.313479781022","5.6452366423358","base.fr"
139,"__cities_.fr.01149-01500-00139","__areas__.fr.001-001",1,1149,1500,"Douvres","45.985360549451","5.3741294505495","base.fr"
140,"__cities_.fr.01150-01250-00140","__areas__.fr.001-001",1,1150,1250,"Drom","46.223626826923","5.3699690384615","base.fr"
141,"__cities_.fr.01151-01160-00141","__areas__.fr.001-001",1,1151,1160,"Druillat","46.068407205882","5.2952876470588","base.fr"
142,"__cities_.fr.01152-01130-00142","__areas__.fr.001-001",1,1152,1130,"Échallon","46.223541649485","5.7368471134021","base.fr"
143,"__cities_.fr.01153-01170-00143","__areas__.fr.001-001",1,1153,1170,"Échenevex","46.315665100671","6.0226862416107","base.fr"
144,"__cities_.fr.01154-01340-00144","__areas__.fr.001-001",1,1154,1340,"Étrez","46.341437405063","5.1962487341772","base.fr"
145,"__cities_.fr.01155-01230-00145","__areas__.fr.001-001",1,1155,1230,"Évosges","45.957167126437","5.4972251724138","base.fr"
146,"__cities_.fr.01156-01800-00146","__areas__.fr.001-001",1,1156,1800,"Faramans","45.907376808511","5.1228655319149","base.fr"
147,"__cities_.fr.01157-01480-00147","__areas__.fr.001-001",1,1157,1480,"Fareins","46.02390752809","4.766631235955","base.fr"
148,"__cities_.fr.01158-01550-00148","__areas__.fr.001-001",1,1158,1550,"Farges","46.162470901639","5.919221147541","base.fr"
149,"__cities_.fr.01159-01570-00149","__areas__.fr.001-001",1,1159,1570,"Feillens","46.337210529412","4.8906094117647","base.fr"
150,"__cities_.fr.01160-01210-00150","__areas__.fr.001-001",1,1160,1210,"Ferney-Voltaire","46.25432","6.106802238806","base.fr"
151,"__cities_.fr.01162-01350-00151","__areas__.fr.001-001",1,1162,1350,"Flaxieu","45.811773389831","5.740849661017","base.fr"
152,"__cities_.fr.01163-01340-00152","__areas__.fr.001-001",1,1163,1340,"Foissiat","46.378325784314","5.1871447058823","base.fr"
153,"__cities_.fr.01165-01090-00153","__areas__.fr.001-001",1,1165,1090,"Francheleins","46.071930666667","4.8244355238095","base.fr"
154,"__cities_.fr.01166-01480-00154","__areas__.fr.001-001",1,1166,1480,"Frans","45.992107755102","4.7765397959184","base.fr"
155,"__cities_.fr.01167-01140-00155","__areas__.fr.001-001",1,1167,1140,"Garnerans","46.211864821429","4.8331286904762","base.fr"
156,"__cities_.fr.01169-01090-00156","__areas__.fr.001-001",1,1169,1090,"Genouilleux","46.122538823529","4.8012541176471","base.fr"
157,"__cities_.fr.01170-01460-00157","__areas__.fr.001-001",1,1170,1460,"Béard-Géovreissiat","46.191400963855","5.5497537349398","base.fr"
158,"__cities_.fr.01171-01100-00158","__areas__.fr.001-001",1,1171,1100,"Géovreisset","46.255557377049","5.6189375409836","base.fr"
159,"__cities_.fr.01173-01170-00159","__areas__.fr.001-001",1,1173,1170,"Gex","46.343585086207","6.0474881896552","base.fr"
160,"__cities_.fr.01174-01130-00160","__areas__.fr.001-001",1,1174,1130,"Giron","46.217934651163","5.7870181395349","base.fr"
161,"__cities_.fr.01175-01190-00161","__areas__.fr.001-001",1,1175,1190,"Gorrevod","46.415424347826","4.9559078985507","base.fr"
162,"__cities_.fr.01177-01250-00162","__areas__.fr.001-001",1,1177,1250,"Grand-Corent","46.215234157303","5.4387987640449","base.fr"
163,"__cities_.fr.01179-01290-00163","__areas__.fr.001-001",1,1179,1290,"Grièges","46.263813429952","4.853151352657","base.fr"
164,"__cities_.fr.01180-01220-00164","__areas__.fr.001-001",1,1180,1220,"Grilly","46.329173411765","6.1152829411765","base.fr"
165,"__cities_.fr.01181-01100-00165","__areas__.fr.001-001",1,1181,1100,"Groissiat","46.223585714286","5.6182269642857","base.fr"
166,"__cities_.fr.01183-01090-00166","__areas__.fr.001-001",1,1183,1090,"Guéreins","46.104459090909","4.7865461363636","base.fr"
167,"__cities_.fr.01184-01250-00167","__areas__.fr.001-001",1,1184,1250,"Hautecourt-Romanèche","46.162525359477","5.4267312418301","base.fr"
168,"__cities_.fr.01185-01110-00168","__areas__.fr.001-001",1,1185,1110,"Hauteville-Lompnes","45.964660108696","5.5721920108696","base.fr"
169,"__cities_.fr.01186-01110-00169","__areas__.fr.001-001",1,1186,1110,"Hostiaz","45.905305163399","5.535915751634","base.fr"
170,"__cities_.fr.01187-01260-00170","__areas__.fr.001-001",1,1187,1260,"Haut Valromey","46.036290947075","5.67748","base.fr"
171,"__cities_.fr.01188-01140-00171","__areas__.fr.001-001",1,1188,1140,"Illiat","46.186238926829","4.8932894634146","base.fr"
172,"__cities_.fr.01189-01200-00172","__areas__.fr.001-001",1,1189,1200,"Injoux-Génissiat","46.047714744898","5.7695633673469","base.fr"
173,"__cities_.fr.01190-01680-00173","__areas__.fr.001-001",1,1190,1680,"Innimond","45.791637425743","5.569959009901","base.fr"
174,"__cities_.fr.01191-01430-00174","__areas__.fr.001-001",1,1191,1430,"Izenave","46.039865545455","5.5238256363636","base.fr"
175,"__cities_.fr.01192-01580-00175","__areas__.fr.001-001",1,1192,1580,"Izernore","46.216806709677","5.5550115483871","base.fr"
176,"__cities_.fr.01193-01300-00176","__areas__.fr.001-001",1,1193,1300,"Izieu","45.653658888889","5.6392182407407","base.fr"
177,"__cities_.fr.01194-01480-00177","__areas__.fr.001-001",1,1194,1480,"Jassans-Riottier","45.978991153846","4.7605163461538","base.fr"
178,"__cities_.fr.01195-01250-00178","__areas__.fr.001-001",1,1195,1250,"Jasseron","46.218284535519","5.3143085245902","base.fr"
179,"__cities_.fr.01196-01340-00179","__areas__.fr.001-001",1,1196,1340,"Jayat","46.370248333333","5.1118788738739","base.fr"
180,"__cities_.fr.01197-01250-00180","__areas__.fr.001-001",1,1197,1250,"Journans","46.147251538462","5.3365584615385","base.fr"
181,"__cities_.fr.01198-01800-00181","__areas__.fr.001-001",1,1198,1800,"Joyeux","45.951558083333","5.1024899166667","base.fr"
182,"__cities_.fr.01199-01640-00182","__areas__.fr.001-001",1,1199,1640,"Jujurieux","46.046191277533","5.418876123348","base.fr"
183,"__cities_.fr.01200-01450-00183","__areas__.fr.001-001",1,1200,1450,"Labalme","46.089693956044","5.4893517582418","base.fr"
184,"__cities_.fr.01202-01150-00184","__areas__.fr.001-001",1,1202,1150,"Lagnieu","45.894874597701","5.3415022988506","base.fr"
185,"__cities_.fr.01203-01290-00185","__areas__.fr.001-001",1,1203,1290,"Laiz","46.24715602649","4.8994701324503","base.fr"
186,"__cities_.fr.01204-01130-00186","__areas__.fr.001-001",1,1204,1130,"Le Poizat-Lalleyriat","46.139619230769","5.691783986014","base.fr"
187,"__cities_.fr.01205-01200-00187","__areas__.fr.001-001",1,1205,1200,"Lancrans","46.128197835052","5.8395102061856","base.fr"
188,"__cities_.fr.01206-01430-00188","__areas__.fr.001-001",1,1206,1430,"Lantenay","46.057073707865","5.5390223595506","base.fr"
189,"__cities_.fr.01207-01330-00189","__areas__.fr.001-001",1,1207,1330,"Lapeyrouse","45.987971652174","4.9771595652174","base.fr"
190,"__cities_.fr.01208-01350-00190","__areas__.fr.001-001",1,1208,1350,"Lavours","45.813437636364","5.7735469090909","base.fr"
191,"__cities_.fr.01209-01200-00191","__areas__.fr.001-001",1,1209,1200,"Léaz","46.111214893617","5.8763674468085","base.fr"
192,"__cities_.fr.01210-01410-00192","__areas__.fr.001-001",1,1210,1410,"Lélex","46.289668350515","5.9245162886598","base.fr"
193,"__cities_.fr.01211-01240-00193","__areas__.fr.001-001",1,1211,1240,"Lent","46.116253246753","5.1986912121212","base.fr"
194,"__cities_.fr.01212-01560-00194","__areas__.fr.001-001",1,1212,1560,"Lescheroux","46.411605091743","5.1486756422018","base.fr"
195,"__cities_.fr.01213-01150-00195","__areas__.fr.001-001",1,1213,1150,"Leyment","45.929987241379","5.2960704597701","base.fr"
196,"__cities_.fr.01214-01450-00196","__areas__.fr.001-001",1,1214,1450,"Leyssard","46.162673965517","5.4735514655172","base.fr"
197,"__cities_.fr.01215-01420-00197","__areas__.fr.001-001",1,1215,1420,"Lhôpital","46.025032916667","5.766591875","base.fr"
198,"__cities_.fr.01216-01680-00198","__areas__.fr.001-001",1,1216,1680,"Lhuis","45.752178111888","5.5374274825175","base.fr"
199,"__cities_.fr.01218-01260-00199","__areas__.fr.001-001",1,1218,1260,"Lochieu","45.928839477612","5.7351398507463","base.fr"
200,"__cities_.fr.01219-01680-00200","__areas__.fr.001-001",1,1219,1680,"Lompnas","45.809677810219","5.5253610948905","base.fr"
201,"__cities_.fr.01221-01260-00201","__areas__.fr.001-001",1,1221,1260,"Lompnieu","45.972324782609","5.6684386956522","base.fr"
202,"__cities_.fr.01224-01360-00202","__areas__.fr.001-001",1,1224,1360,"Loyettes","45.792332325581","5.2050141860465","base.fr"
203,"__cities_.fr.01225-01090-00203","__areas__.fr.001-001",1,1225,1090,"Lurcy","46.063368888889","4.7789851851852","base.fr"
204,"__cities_.fr.01227-01300-00204","__areas__.fr.001-001",1,1227,1300,"Magnieu","45.779252727273","5.7123558677686","base.fr"
205,"__cities_.fr.01228-01430-00205","__areas__.fr.001-001",1,1228,1430,"Maillat","46.1188594","5.5318290666667","base.fr"
206,"__cities_.fr.01229-01340-00206","__areas__.fr.001-001",1,1229,1340,"Malafretaz","46.326033823529","5.1405652941176","base.fr"
207,"__cities_.fr.01230-01560-00207","__areas__.fr.001-001",1,1230,1560,"Mantenay-Montlin","46.4296861875","5.1049473125","base.fr"
208,"__cities_.fr.01231-01570-00208","__areas__.fr.001-001",1,1231,1570,"Manziat","46.361492569444","4.9042084027778","base.fr"
209,"__cities_.fr.01232-01851-00209","__areas__.fr.001-001",1,1232,1851,"Marboz","46.349246390977","5.2432285964912","base.fr"
210,"__cities_.fr.01233-01680-00210","__areas__.fr.001-001",1,1233,1680,"Marchamp","45.776306388889","5.5450161111111","base.fr"
211,"__cities_.fr.01234-01300-00211","__areas__.fr.001-001",1,1234,1300,"Marignieu","45.801284343434","5.7165661616162","base.fr"
212,"__cities_.fr.01235-01240-00212","__areas__.fr.001-001",1,1235,1240,"Marlieux","46.052591918605","5.0709296511628","base.fr"
213,"__cities_.fr.01236-01340-00213","__areas__.fr.001-001",1,1236,1340,"Marsonnas","46.340699460581","5.0654969709544","base.fr"
214,"__cities_.fr.01237-01100-00214","__areas__.fr.001-001",1,1237,1100,"Martignat","46.206200786517","5.6146128089888","base.fr"
215,"__cities_.fr.01238-01600-00215","__areas__.fr.001-001",1,1238,1600,"Massieux","45.90955675","4.831477","base.fr"
216,"__cities_.fr.01239-01300-00216","__areas__.fr.001-001",1,1239,1300,"Massignieu-de-Rives","45.754210408163","5.7556647959184","base.fr"
217,"__cities_.fr.01240-01580-00217","__areas__.fr.001-001",1,1240,1580,"Matafelon-Granges","46.246085579399","5.5280351502146","base.fr"
218,"__cities_.fr.01241-01370-00218","__areas__.fr.001-001",1,1241,1370,"Meillonnas","46.247842051282","5.3291216239316","base.fr"
219,"__cities_.fr.01242-01450-00219","__areas__.fr.001-001",1,1242,1450,"Mérignat","46.064974848485","5.441378030303","base.fr"
220,"__cities_.fr.01243-01480-00220","__areas__.fr.001-001",1,1243,1480,"Messimy-sur-Saône","46.047638947368","4.763769122807","base.fr"
221,"__cities_.fr.01244-01800-00221","__areas__.fr.001-001",1,1244,1800,"Meximieux","45.912567586207","5.1961089655172","base.fr"
222,"__cities_.fr.01245-01250-00222","__areas__.fr.001-001",1,1245,1250,"Bohas-Meyriat-Rignat","46.142560829268","5.3784070731707","base.fr"
223,"__cities_.fr.01246-01660-00223","__areas__.fr.001-001",1,1246,1660,"Mézériat","46.241712925926","5.0485121111111","base.fr"
224,"__cities_.fr.01247-01170-00224","__areas__.fr.001-001",1,1247,1170,"Mijoux","46.3368057","6.0574695","base.fr"
225,"__cities_.fr.01247-01410-00225","__areas__.fr.001-001",1,1247,1410,"Mijoux","46.366475","5.996778","base.fr"
226,"__cities_.fr.01248-01390-00226","__areas__.fr.001-001",1,1248,1390,"Mionnay","45.900122410714","4.9314715178571","base.fr"
227,"__cities_.fr.01249-01700-00227","__areas__.fr.001-001",1,1249,1700,"Miribel","45.841244383562","4.9393190410959","base.fr"
228,"__cities_.fr.01250-01600-00228","__areas__.fr.001-001",1,1250,1600,"Misérieux","45.978420555556","4.8066330555556","base.fr"
229,"__cities_.fr.01252-01140-00229","__areas__.fr.001-001",1,1252,1140,"Mogneneins","46.14272862069","4.8260457471264","base.fr"
230,"__cities_.fr.01254-01250-00230","__areas__.fr.001-001",1,1254,1250,"Montagnat","46.170310727273","5.2786688484849","base.fr"
231,"__cities_.fr.01255-01470-00231","__areas__.fr.001-001",1,1255,1470,"Montagnieu","45.800685243902","5.4626657317073","base.fr"
232,"__cities_.fr.01257-01200-00232","__areas__.fr.001-001",1,1257,1200,"Montanges","46.169097472527","5.7949802197802","base.fr"
233,"__cities_.fr.01258-01090-00233","__areas__.fr.001-001",1,1258,1090,"Montceaux","46.101005272727","4.8032549090909","base.fr"
234,"__cities_.fr.01259-01310-00234","__areas__.fr.001-001",1,1259,1310,"Montcet","46.219900451613","5.1123139354839","base.fr"
235,"__cities_.fr.01260-01800-00235","__areas__.fr.001-001",1,1260,1800,"Le Montellier","45.925398953488","5.0653569767442","base.fr"
236,"__cities_.fr.01261-01390-00236","__areas__.fr.001-001",1,1261,1390,"Monthieux","45.963843882353","4.9423116470588","base.fr"
237,"__cities_.fr.01262-01120-00237","__areas__.fr.001-001",1,1262,1120,"Montluel","45.891905259516","5.0257379930796","base.fr"
238,"__cities_.fr.01263-01090-00238","__areas__.fr.001-001",1,1263,1090,"Montmerle-sur-Saône","46.084961785714","4.7599917857143","base.fr"
239,"__cities_.fr.01264-01310-00239","__areas__.fr.001-001",1,1264,1310,"Montracol","46.185700204082","5.1193601020408","base.fr"
240,"__cities_.fr.01265-01460-00240","__areas__.fr.001-001",1,1265,1460,"Montréal-la-Cluse","46.176810841122","5.5894499065421","base.fr"
241,"__cities_.fr.01266-01340-00241","__areas__.fr.001-001",1,1266,1340,"Montrevel-en-Bresse","46.325558957055","5.1109804907975","base.fr"
242,"__cities_.fr.01267-01460-00242","__areas__.fr.001-001",1,1267,1460,"Nurieux-Volognat","46.186473603604","5.5230589189189","base.fr"
243,"__cities_.fr.01268-01300-00243","__areas__.fr.001-001",1,1268,1300,"Murs-et-Gélignieux","45.641982891566","5.6540642168675","base.fr"
244,"__cities_.fr.01269-01130-00244","__areas__.fr.001-001",1,1269,1130,"Nantua","46.153405","5.607762","base.fr"
245,"__cities_.fr.01269-01460-00245","__areas__.fr.001-001",1,1269,1460,"Nantua","46.1801574","5.5472134","base.fr"
246,"__cities_.fr.01272-01400-00246","__areas__.fr.001-001",1,1272,1400,"Neuville-les-Dames","46.158577114428","5.0070058208955","base.fr"
247,"__cities_.fr.01273-01160-00247","__areas__.fr.001-001",1,1273,1160,"Neuville-sur-Ain","46.09326285","5.3694566","base.fr"
248,"__cities_.fr.01274-01130-00248","__areas__.fr.001-001",1,1274,1130,"Les Neyrolles","46.132647283951","5.6349672839506","base.fr"
249,"__cities_.fr.01275-01700-00249","__areas__.fr.001-001",1,1275,1700,"Neyron","45.822600526316","4.9291730263158","base.fr"
250,"__cities_.fr.01276-01120-00250","__areas__.fr.001-001",1,1276,1120,"Niévroz","45.823148","5.0594624444444","base.fr"
251,"__cities_.fr.01277-01230-00251","__areas__.fr.001-001",1,1277,1230,"Nivollet-Montgriffon","46.001063550725","5.4596884782609","base.fr"
252,"__cities_.fr.01279-01230-00252","__areas__.fr.001-001",1,1279,1230,"Oncieu","45.964945730337","5.4746008988764","base.fr"
253,"__cities_.fr.01280-01510-00253","__areas__.fr.001-001",1,1280,1510,"Ordonnaz","45.83268056","5.5402864","base.fr"
254,"__cities_.fr.01281-01210-00254","__areas__.fr.001-001",1,1281,1210,"Ornex","46.27579212766","6.0947413829787","base.fr"
255,"__cities_.fr.01282-01430-00255","__areas__.fr.001-001",1,1282,1430,"Outriaz","46.067567692308","5.5522518681319","base.fr"
256,"__cities_.fr.01283-01100-00256","__areas__.fr.001-001",1,1283,1100,"Oyonnax","46.268454712644","5.6376346551724","base.fr"
257,"__cities_.fr.01284-01190-00257","__areas__.fr.001-001",1,1284,1190,"Ozan","46.38681127907","4.9144151162791","base.fr"
258,"__cities_.fr.01285-01600-00258","__areas__.fr.001-001",1,1285,1600,"Parcieux","45.919951041667","4.8313279166667","base.fr"
259,"__cities_.fr.01286-01300-00259","__areas__.fr.001-001",1,1286,1300,"Parves et Nattages","45.735421680672","5.745638487395","base.fr"
260,"__cities_.fr.01288-01630-00260","__areas__.fr.001-001",1,1288,1630,"Péron","46.186958944444","5.9307188888889","base.fr"
261,"__cities_.fr.01289-01960-00261","__areas__.fr.001-001",1,1289,1960,"Péronnas","46.169719892473","5.2113004301075","base.fr"
262,"__cities_.fr.01290-01800-00262","__areas__.fr.001-001",1,1290,1800,"Pérouges","45.885807724138","5.1754495172414","base.fr"
263,"__cities_.fr.01291-01540-00263","__areas__.fr.001-001",1,1291,1540,"Perrex","46.248870689655","4.9702835057471","base.fr"
264,"__cities_.fr.01293-01430-00264","__areas__.fr.001-001",1,1293,1430,"Peyriat","46.147357058824","5.5112255882353","base.fr"
265,"__cities_.fr.01294-01300-00265","__areas__.fr.001-001",1,1294,1300,"Peyrieu","45.679287764706","5.6784827058823","base.fr"
266,"__cities_.fr.01295-01140-00266","__areas__.fr.001-001",1,1295,1140,"Peyzieux-sur-Saône","46.124812815534","4.8235725242719","base.fr"
267,"__cities_.fr.01296-01270-00267","__areas__.fr.001-001",1,1296,1270,"Pirajoux","46.387808848684","5.2729334539474","base.fr"
268,"__cities_.fr.01297-01120-00268","__areas__.fr.001-001",1,1297,1120,"Pizay","45.885806376812","5.0904425362319","base.fr"
269,"__cities_.fr.01298-01130-00269","__areas__.fr.001-001",1,1298,1130,"Plagne","46.18455969697","5.722765050505","base.fr"
270,"__cities_.fr.01299-01330-00270","__areas__.fr.001-001",1,1299,1330,"Le Plantay","46.023204557823","5.0932321088435","base.fr"
271,"__cities_.fr.01301-01310-00271","__areas__.fr.001-001",1,1301,1310,"Polliat","46.246783405797","5.1373959057971","base.fr"
272,"__cities_.fr.01302-01350-00272","__areas__.fr.001-001",1,1302,1350,"Pollieu","45.792105416667","5.7492647916667","base.fr"
273,"__cities_.fr.01303-01450-00273","__areas__.fr.001-001",1,1303,1450,"Poncin","46.088460914286","5.4168878857143","base.fr"
274,"__cities_.fr.01304-01160-00274","__areas__.fr.001-001",1,1304,1160,"Pont-d'Ain","46.0566544","5.34724504","base.fr"
275,"__cities_.fr.01305-01190-00275","__areas__.fr.001-001",1,1305,1190,"Pont-de-Vaux","46.439337440476","4.9311148809524","base.fr"
276,"__cities_.fr.01306-01290-00276","__areas__.fr.001-001",1,1306,1290,"Pont-de-Veyle","46.263302763158","4.8831168421053","base.fr"
277,"__cities_.fr.01307-01460-00277","__areas__.fr.001-001",1,1307,1460,"Port","46.157693823529","5.5769536764706","base.fr"
278,"__cities_.fr.01308-01550-00278","__areas__.fr.001-001",1,1308,1550,"Pougny","46.148147428571","5.9473418095238","base.fr"
279,"__cities_.fr.01309-01250-00279","__areas__.fr.001-001",1,1309,1250,"Pouillat","46.32487872549","5.4252788235294","base.fr"
280,"__cities_.fr.01310-01300-00280","__areas__.fr.001-001",1,1310,1300,"Prémeyzel","45.68328398374","5.6448224390244","base.fr"
281,"__cities_.fr.01311-01110-00281","__areas__.fr.001-001",1,1311,1110,"Prémillieu","45.874012090909","5.5635925454545","base.fr"
282,"__cities_.fr.01313-01280-00282","__areas__.fr.001-001",1,1313,1280,"Prévessin-Moëns","46.260051595092","6.073103803681","base.fr"
283,"__cities_.fr.01314-01160-00283","__areas__.fr.001-001",1,1314,1160,"Priay","46.02245064","5.28135056","base.fr"
284,"__cities_.fr.01317-01250-00284","__areas__.fr.001-001",1,1317,1250,"Ramasse","46.191196111111","5.3574535555556","base.fr"
285,"__cities_.fr.01318-01390-00285","__areas__.fr.001-001",1,1318,1390,"Rancé","45.971031851852","4.8674598148148","base.fr"
286,"__cities_.fr.01319-01990-00286","__areas__.fr.001-001",1,1319,1990,"Relevant","46.080110289855","4.9415097101449","base.fr"
287,"__cities_.fr.01320-01750-00287","__areas__.fr.001-001",1,1320,1750,"Replonges","46.308020479452","4.8833526712329","base.fr"
288,"__cities_.fr.01321-01250-00288","__areas__.fr.001-001",1,1321,1250,"Revonnas","46.163379090909","5.3356696969697","base.fr"
289,"__cities_.fr.01322-01600-00289","__areas__.fr.001-001",1,1322,1600,"Reyrieux","45.937064814815","4.8314667901235","base.fr"
290,"__cities_.fr.01323-01190-00290","__areas__.fr.001-001",1,1323,1190,"Reyssouze","46.431555754717","4.9117678301887","base.fr"
291,"__cities_.fr.01325-01800-00291","__areas__.fr.001-001",1,1325,1800,"Rignieux-le-Franc","45.952580931373","5.1710135294118","base.fr"
292,"__cities_.fr.01328-01400-00292","__areas__.fr.001-001",1,1328,1400,"Romans","46.121131560976","5.0181029268293","base.fr"
293,"__cities_.fr.01329-01510-00293","__areas__.fr.001-001",1,1329,1510,"Rossillon","45.834869692308","5.5901095384615","base.fr"
294,"__cities_.fr.01330-01260-00294","__areas__.fr.001-001",1,1330,1260,"Ruffieu","46.003381777778","5.6644216666667","base.fr"
295,"__cities_.fr.01331-01450-00295","__areas__.fr.001-001",1,1331,1450,"Saint-Alban","46.097748372093","5.4549434883721","base.fr"
296,"__cities_.fr.01332-01380-00296","__areas__.fr.001-001",1,1332,1380,"Saint-André-de-Bâgé","46.299248974359","4.9148964102564","base.fr"
297,"__cities_.fr.01333-01390-00297","__areas__.fr.001-001",1,1333,1390,"Saint-André-de-Corcy","45.922975488722","4.9511169172932","base.fr"
298,"__cities_.fr.01334-01290-00298","__areas__.fr.001-001",1,1334,1290,"Saint-André-d'Huiriat","46.210860235294","4.9052168235294","base.fr"
299,"__cities_.fr.01335-01240-00299","__areas__.fr.001-001",1,1335,1240,"Saint-André-le-Bouchoux","46.11387","5.0801015322581","base.fr"
300,"__cities_.fr.01336-01960-00300","__areas__.fr.001-001",1,1336,1960,"Saint-André-sur-Vieux-Jonc","46.15003497992","5.142272811245","base.fr"
301,"__cities_.fr.01337-01190-00301","__areas__.fr.001-001",1,1337,1190,"Saint-Bénigne","46.44806865","4.95658635","base.fr"
302,"__cities_.fr.01338-01300-00302","__areas__.fr.001-001",1,1338,1300,"Groslée-Saint-Benoit","45.7015115","5.5804025","base.fr"
303,"__cities_.fr.01338-01680-00303","__areas__.fr.001-001",1,1338,1680,"Groslée-Saint-Benoit","45.714085","5.569955","base.fr"
304,"__cities_.fr.01339-01600-00304","__areas__.fr.001-001",1,1339,1600,"Saint-Bernard","45.949240612245","4.7452465306122","base.fr"
305,"__cities_.fr.01341-01300-00305","__areas__.fr.001-001",1,1341,1300,"Saint-Champ","45.784561851852","5.7288506172839","base.fr"
306,"__cities_.fr.01342-01120-00306","__areas__.fr.001-001",1,1342,1120,"Sainte-Croix","45.897845175439","5.0472085964912","base.fr"
307,"__cities_.fr.01343-01380-00307","__areas__.fr.001-001",1,1343,1380,"Saint-Cyr-sur-Menthon","46.273666701031","4.9657138659794","base.fr"
308,"__cities_.fr.01344-01000-00308","__areas__.fr.001-001",1,1344,1000,"Saint-Denis-lès-Bourg","46.211603954802","5.1798916384181","base.fr"
309,"__cities_.fr.01345-01500-00309","__areas__.fr.001-001",1,1345,1500,"Saint-Denis-en-Bugey","45.949422419355","5.3237666129032","base.fr"
310,"__cities_.fr.01346-01340-00310","__areas__.fr.001-001",1,1346,1340,"Saint-Didier-d'Aussiat","46.30805965812","5.0548059401709","base.fr"
311,"__cities_.fr.01347-01600-00311","__areas__.fr.001-001",1,1347,1600,"Saint-Didier-de-Formans","45.956260851064","4.7744057446809","base.fr"
312,"__cities_.fr.01348-01140-00312","__areas__.fr.001-001",1,1348,1140,"Saint-Didier-sur-Chalaronne","46.18464519774","4.8200663276836","base.fr"
313,"__cities_.fr.01349-01800-00313","__areas__.fr.001-001",1,1349,1800,"Saint-Éloi","45.932708928571","5.1540408571429","base.fr"
314,"__cities_.fr.01350-01370-00314","__areas__.fr.001-001",1,1350,1370,"Saint-Étienne-du-Bois","46.27508734375","5.28916484375","base.fr"
315,"__cities_.fr.01351-01140-00315","__areas__.fr.001-001",1,1351,1140,"Saint-Étienne-sur-Chalaronne","46.144004549763","4.8731389099526","base.fr"
316,"__cities_.fr.01352-01190-00316","__areas__.fr.001-001",1,1352,1190,"Saint-Étienne-sur-Reyssouze","46.403713148148","5.0094353703704","base.fr"
317,"__cities_.fr.01353-01600-00317","__areas__.fr.001-001",1,1353,1600,"Sainte-Euphémie","45.971091212121","4.7919345454545","base.fr"
318,"__cities_.fr.01354-01630-00318","__areas__.fr.001-001",1,1354,1630,"Saint-Genis-Pouilly","46.255310614525","6.0338029608939","base.fr"
319,"__cities_.fr.01355-01380-00319","__areas__.fr.001-001",1,1355,1380,"Saint-Genis-sur-Menthon","46.281856012658","5.013186835443","base.fr"
320,"__cities_.fr.01356-01400-00320","__areas__.fr.001-001",1,1356,1400,"Saint-Georges-sur-Renon","46.10366440367","5.0294793577982","base.fr"
321,"__cities_.fr.01357-01130-00321","__areas__.fr.001-001",1,1357,1130,"Saint-Germain-de-Joux","46.18433781457","5.7397023178808","base.fr"
322,"__cities_.fr.01358-01300-00322","__areas__.fr.001-001",1,1358,1300,"Saint-Germain-les-Paroisses","45.765746503497","5.6195942657343","base.fr"
323,"__cities_.fr.01359-01240-00323","__areas__.fr.001-001",1,1359,1240,"Saint-Germain-sur-Renon","46.077766453488","5.0560798837209","base.fr"
324,"__cities_.fr.01360-01630-00324","__areas__.fr.001-001",1,1360,1630,"Saint-Jean-de-Gonville","46.213567537313","5.9485408955224","base.fr"
325,"__cities_.fr.01361-01800-00325","__areas__.fr.001-001",1,1361,1800,"Saint-Jean-de-Niost","45.842411791045","5.2058689552239","base.fr"
326,"__cities_.fr.01362-01390-00326","__areas__.fr.001-001",1,1362,1390,"Saint-Jean-de-Thurigneux","45.955596976744","4.9084358139535","base.fr"
327,"__cities_.fr.01363-01640-00327","__areas__.fr.001-001",1,1363,1640,"Saint-Jean-le-Vieux","46.031344444444","5.3838333333333","base.fr"
328,"__cities_.fr.01364-01560-00328","__areas__.fr.001-001",1,1364,1560,"Saint-Jean-sur-Reyssouze","46.396315681063","5.0608316943522","base.fr"
329,"__cities_.fr.01365-01290-00329","__areas__.fr.001-001",1,1365,1290,"Saint-Jean-sur-Veyle","46.26549675","4.926397625","base.fr"
330,"__cities_.fr.01366-01150-00330","__areas__.fr.001-001",1,1366,1150,"Sainte-Julie","45.890518846154","5.28701","base.fr"
331,"__cities_.fr.01367-01560-00331","__areas__.fr.001-001",1,1367,1560,"Saint-Julien-sur-Reyssouze","46.397460054054","5.1065961081081","base.fr"
332,"__cities_.fr.01368-01540-00332","__areas__.fr.001-001",1,1368,1540,"Saint-Julien-sur-Veyle","46.205004782609","4.9597010559006","base.fr"
333,"__cities_.fr.01369-01250-00333","__areas__.fr.001-001",1,1369,1250,"Saint-Just","46.192578173077","5.2854538461538","base.fr"
334,"__cities_.fr.01370-01750-00334","__areas__.fr.001-001",1,1370,1750,"Saint-Laurent-sur-Saône","46.3056","4.8406876470588","base.fr"
335,"__cities_.fr.01371-01390-00335","__areas__.fr.001-001",1,1371,1390,"Saint-Marcel","45.949043432836","4.9880255223881","base.fr"
336,"__cities_.fr.01372-01510-00336","__areas__.fr.001-001",1,1372,1510,"Saint-Martin-de-Bavel","45.848408","5.6790085","base.fr"
337,"__cities_.fr.01373-01430-00337","__areas__.fr.001-001",1,1373,1430,"Saint-Martin-du-Frêne","46.137912089552","5.5607188059701","base.fr"
338,"__cities_.fr.01374-01160-00338","__areas__.fr.001-001",1,1374,1160,"Saint-Martin-du-Mont","46.10578908046","5.3363602873563","base.fr"
339,"__cities_.fr.01375-01310-00339","__areas__.fr.001-001",1,1375,1310,"Saint-Martin-le-Châtel","46.289546964286","5.1248483928571","base.fr"
340,"__cities_.fr.01376-01700-00340","__areas__.fr.001-001",1,1376,1700,"Saint-Maurice-de-Beynost","45.840060824742","4.9750116494845","base.fr"
341,"__cities_.fr.01378-01800-00341","__areas__.fr.001-001",1,1378,1800,"Saint-Maurice-de-Gourdans","45.816258688525","5.1719239344262","base.fr"
342,"__cities_.fr.01379-01500-00342","__areas__.fr.001-001",1,1379,1500,"Saint-Maurice-de-Rémens","45.959091588785","5.2739736448598","base.fr"
343,"__cities_.fr.01380-01560-00343","__areas__.fr.001-001",1,1380,1560,"Saint-Nizier-le-Bouchoux","46.455524243421","5.1771637828947","base.fr"
344,"__cities_.fr.01381-01320-00344","__areas__.fr.001-001",1,1381,1320,"Saint-Nizier-le-Désert","46.056621912568","5.1448345355191","base.fr"
345,"__cities_.fr.01382-01330-00345","__areas__.fr.001-001",1,1382,1330,"Sainte-Olive","46.01548210084","4.9349597478992","base.fr"
346,"__cities_.fr.01383-01240-00346","__areas__.fr.001-001",1,1383,1240,"Saint-Paul-de-Varax","46.094532553191","5.1323431489362","base.fr"
347,"__cities_.fr.01384-01230-00347","__areas__.fr.001-001",1,1384,1230,"Saint-Rambert-en-Bugey","45.951948318584","5.4421298672566","base.fr"
348,"__cities_.fr.01385-01310-00348","__areas__.fr.001-001",1,1385,1310,"Saint-Rémy","46.182723015873","5.1671148412698","base.fr"
349,"__cities_.fr.01386-01150-00349","__areas__.fr.001-001",1,1386,1150,"Saint-Sorlin-en-Bugey","45.889022166667","5.37645925","base.fr"
350,"__cities_.fr.01387-01340-00350","__areas__.fr.001-001",1,1387,1340,"Saint-Sulpice","46.320560833333","5.0428247619048","base.fr"
351,"__cities_.fr.01388-01560-00351","__areas__.fr.001-001",1,1388,1560,"Saint-Trivier-de-Courtes","46.458275126904","5.0665529441624","base.fr"
352,"__cities_.fr.01389-01990-00352","__areas__.fr.001-001",1,1389,1990,"Saint-Trivier-sur-Moignans","46.058216792453","4.9023261509434","base.fr"
353,"__cities_.fr.01390-01150-00353","__areas__.fr.001-001",1,1390,1150,"Saint-Vulbas","45.8318759375","5.2759490625","base.fr"
354,"__cities_.fr.01391-01270-00354","__areas__.fr.001-001",1,1391,1270,"Salavre","46.364444012739","5.344440955414","base.fr"
355,"__cities_.fr.01392-01580-00355","__areas__.fr.001-001",1,1392,1580,"Samognat","46.269250949367","5.5903228481013","base.fr"
356,"__cities_.fr.01393-01400-00356","__areas__.fr.001-001",1,1393,1400,"Sandrans","46.06904535316","4.9782291821561","base.fr"
357,"__cities_.fr.01396-01150-00357","__areas__.fr.001-001",1,1396,1150,"Sault-Brénaz","45.865623209877","5.4092097530864","base.fr"
358,"__cities_.fr.01397-01220-00358","__areas__.fr.001-001",1,1397,1220,"Sauverny","46.312674727273","6.1131843636364","base.fr"
359,"__cities_.fr.01398-01480-00359","__areas__.fr.001-001",1,1398,1480,"Savigneux","46.000490973451","4.8655339823009","base.fr"
360,"__cities_.fr.01399-01170-00360","__areas__.fr.001-001",1,1399,1170,"Ségny","46.291809655172","6.0707562068965","base.fr"
361,"__cities_.fr.01400-01470-00361","__areas__.fr.001-001",1,1400,1470,"Seillonnaz","45.794917592593","5.5036972222222","base.fr"
362,"__cities_.fr.01401-01630-00362","__areas__.fr.001-001",1,1401,1630,"Sergy","46.255310277778","6.0059023148148","base.fr"
363,"__cities_.fr.01402-01190-00363","__areas__.fr.001-001",1,1402,1190,"Sermoyer","46.498769901478","4.9735604926108","base.fr"
364,"__cities_.fr.01403-01470-00364","__areas__.fr.001-001",1,1403,1470,"Serrières-de-Briord","45.811694615385","5.44787","base.fr"
365,"__cities_.fr.01404-01450-00365","__areas__.fr.001-001",1,1404,1450,"Serrières-sur-Ain","46.147635353535","5.4510002020202","base.fr"
366,"__cities_.fr.01405-01960-00366","__areas__.fr.001-001",1,1405,1960,"Servas","46.137318125","5.1778883173077","base.fr"
367,"__cities_.fr.01406-01560-00367","__areas__.fr.001-001",1,1406,1560,"Servignat","46.434911450382","5.060273740458","base.fr"
368,"__cities_.fr.01407-01420-00368","__areas__.fr.001-001",1,1407,1420,"Seyssel","45.950246666667","5.8280309090909","base.fr"
369,"__cities_.fr.01408-01250-00369","__areas__.fr.001-001",1,1408,1250,"Simandre-sur-Suran","46.235274552846","5.4271908943089","base.fr"
370,"__cities_.fr.01410-01580-00370","__areas__.fr.001-001",1,1410,1580,"Sonthonnax-la-Montagne","46.22298057377","5.507422295082","base.fr"
371,"__cities_.fr.01411-01150-00371","__areas__.fr.001-001",1,1411,1150,"Souclin","45.876544147727","5.4299259090909","base.fr"
372,"__cities_.fr.01412-01400-00372","__areas__.fr.001-001",1,1412,1400,"Sulignat","46.174911823204","4.956456519337","base.fr"
373,"__cities_.fr.01413-01420-00373","__areas__.fr.001-001",1,1413,1420,"Surjoux","46.032156315789","5.7977640789474","base.fr"
374,"__cities_.fr.01414-01260-00374","__areas__.fr.001-001",1,1414,1260,"Sutrieu","45.921851806452","5.6533938709677","base.fr"
375,"__cities_.fr.01415-01510-00375","__areas__.fr.001-001",1,1415,1510,"Talissieu","45.865080530973","5.7177294690266","base.fr"
376,"__cities_.fr.01416-01230-00376","__areas__.fr.001-001",1,1416,1230,"Tenay","45.921807423313","5.5170439877301","base.fr"
377,"__cities_.fr.01417-01110-00377","__areas__.fr.001-001",1,1417,1110,"Thézillieu","45.897281007194","5.5937291366906","base.fr"
378,"__cities_.fr.01418-01120-00378","__areas__.fr.001-001",1,1418,1120,"Thil","45.819739230769","5.0160792307692","base.fr"
379,"__cities_.fr.01419-01710-00379","__areas__.fr.001-001",1,1419,1710,"Thoiry","46.233555379747","5.9788967088608","base.fr"
380,"__cities_.fr.01420-01140-00380","__areas__.fr.001-001",1,1420,1140,"Thoissey","46.170175238095","4.7982266666667","base.fr"
381,"__cities_.fr.01421-01230-00381","__areas__.fr.001-001",1,1421,1230,"Torcieu","45.924105288462","5.4051488461538","base.fr"
382,"__cities_.fr.01422-01250-00382","__areas__.fr.001-001",1,1422,1250,"Tossiat","46.137566707317","5.3013191463415","base.fr"
383,"__cities_.fr.01423-01600-00383","__areas__.fr.001-001",1,1423,1600,"Toussieux","45.9560085","4.8286555","base.fr"
384,"__cities_.fr.01424-01390-00384","__areas__.fr.001-001",1,1424,1390,"Tramoyes","45.874836582278","4.9732815189873","base.fr"
385,"__cities_.fr.01425-01160-00385","__areas__.fr.001-001",1,1425,1160,"La Tranclière","46.094276402878","5.2578652517986","base.fr"
386,"__cities_.fr.01426-01370-00386","__areas__.fr.001-001",1,1426,1370,"Val-Revermont","46.274023931889","5.3604782972136","base.fr"
387,"__cities_.fr.01427-01600-00387","__areas__.fr.001-001",1,1427,1600,"Trévoux","45.944154242424","4.7648607575758","base.fr"
388,"__cities_.fr.01428-01140-00388","__areas__.fr.001-001",1,1428,1140,"Valeins","46.1180021875","4.86467390625","base.fr"
389,"__cities_.fr.01429-01660-00389","__areas__.fr.001-001",1,1429,1660,"Vandeins","46.219274943182","5.0821384659091","base.fr"
390,"__cities_.fr.01430-01160-00390","__areas__.fr.001-001",1,1430,1160,"Varambon","46.045974285714","5.2862591071429","base.fr"
391,"__cities_.fr.01431-01150-00391","__areas__.fr.001-001",1,1431,1150,"Vaux-en-Bugey","45.919211692308","5.3639820769231","base.fr"
392,"__cities_.fr.01432-01270-00392","__areas__.fr.001-001",1,1432,1270,"Verjon","46.343751574803","5.3473013385827","base.fr"
393,"__cities_.fr.01433-01560-00393","__areas__.fr.001-001",1,1433,1560,"Vernoux","46.485904779874","5.1050438993711","base.fr"
394,"__cities_.fr.01434-01330-00394","__areas__.fr.001-001",1,1434,1330,"Versailleux","45.984378736264","5.1158631868132","base.fr"
395,"__cities_.fr.01435-01210-00395","__areas__.fr.001-001",1,1435,1210,"Versonnex","46.301304482759","6.1067454022989","base.fr"
396,"__cities_.fr.01436-01170-00396","__areas__.fr.001-001",1,1436,1170,"Vesancy","46.365838588235","6.0793977647059","base.fr"
397,"__cities_.fr.01437-01560-00397","__areas__.fr.001-001",1,1437,1560,"Vescours","46.477773809524","5.0255986394558","base.fr"
398,"__cities_.fr.01439-01570-00398","__areas__.fr.001-001",1,1439,1570,"Vésines","46.356540869565","4.8640904347826","base.fr"
399,"__cities_.fr.01441-01430-00399","__areas__.fr.001-001",1,1441,1430,"Vieu-d'Izenave","46.086009230769","5.5468081065089","base.fr"
400,"__cities_.fr.01442-01260-00400","__areas__.fr.001-001",1,1442,1260,"Vieu","45.88903752","5.69148184","base.fr"
401,"__cities_.fr.01443-01330-00401","__areas__.fr.001-001",1,1443,1330,"Villars-les-Dombes","45.999015027624","5.0405480662983","base.fr"
402,"__cities_.fr.01444-01150-00402","__areas__.fr.001-001",1,1444,1150,"Villebois","45.854573020134","5.4466133557047","base.fr"
403,"__cities_.fr.01445-01270-00403","__areas__.fr.001-001",1,1445,1270,"Villemotier","46.346038096886","5.3102076124567","base.fr"
404,"__cities_.fr.01446-01480-00404","__areas__.fr.001-001",1,1446,1480,"Villeneuve","46.032065631068","4.856910776699","base.fr"
405,"__cities_.fr.01447-01250-00405","__areas__.fr.001-001",1,1447,1250,"Villereversure","46.18968768595","5.3925418181818","base.fr"
406,"__cities_.fr.01448-01200-00406","__areas__.fr.001-001",1,1448,1200,"Villes","46.093880846154","5.7651163076923","base.fr"
407,"__cities_.fr.01449-01320-00407","__areas__.fr.001-001",1,1449,1320,"Villette-sur-Ain","46.013747682927","5.2517944512195","base.fr"
408,"__cities_.fr.01450-01800-00408","__areas__.fr.001-001",1,1450,1800,"Villieu-Loyes-Mollon","45.935693828125","5.223147421875","base.fr"
409,"__cities_.fr.01451-01440-00409","__areas__.fr.001-001",1,1451,1440,"Viriat","46.251524322767","5.2226111527378","base.fr"
410,"__cities_.fr.01452-01510-00410","__areas__.fr.001-001",1,1452,1510,"Virieu-le-Grand","45.848685","5.65249171875","base.fr"
411,"__cities_.fr.01453-01260-00411","__areas__.fr.001-001",1,1453,1260,"Virieu-le-Petit","45.905685990783","5.7331803225806","base.fr"
412,"__cities_.fr.01454-01300-00412","__areas__.fr.001-001",1,1454,1300,"Virignin","45.728402211538","5.7121944230769","base.fr"
413,"__cities_.fr.01456-01350-00413","__areas__.fr.001-001",1,1456,1350,"Vongnes","45.813412197802","5.7254572527473","base.fr"
414,"__cities_.fr.01457-01540-00414","__areas__.fr.001-001",1,1457,1540,"Vonnas","46.215270849057","4.9957992924528","base.fr"
415,"__cities_.fr.02001-02300-00415","__areas__.fr.002-002",2,2001,2300,"Abbécourt","49.59674752381","3.1800248571429","base.fr"
416,"__cities_.fr.02002-02800-00416","__areas__.fr.002-002",2,2002,2800,"Achery","49.691624183673","3.3929107142857","base.fr"
417,"__cities_.fr.02003-02200-00417","__areas__.fr.002-002",2,2003,2200,"Acy","49.350999756098","3.4211714634146","base.fr"
418,"__cities_.fr.02004-02340-00418","__areas__.fr.002-002",2,2004,2340,"Agnicourt-et-Séchelles","49.719306101695","3.964145338983","base.fr"
419,"__cities_.fr.02005-02190-00419","__areas__.fr.002-002",2,2005,2190,"Aguilcourt","49.397979411765","3.9760671764706","base.fr"
420,"__cities_.fr.02006-02110-00420","__areas__.fr.002-002",2,2006,2110,"Aisonville-et-Bernoville","49.931472033898","3.5085583898305","base.fr"
421,"__cities_.fr.02007-02820-00421","__areas__.fr.002-002",2,2007,2820,"Aizelles","49.487587297297","3.8201212162162","base.fr"
422,"__cities_.fr.02008-02370-00422","__areas__.fr.002-002",2,2008,2370,"Aizy-Jouy","49.439200612245","3.5064210204082","base.fr"
423,"__cities_.fr.02009-02240-00423","__areas__.fr.002-002",2,2009,2240,"Alaincourt","49.765625916667","3.3729654166667","base.fr"
424,"__cities_.fr.02010-02320-00424","__areas__.fr.002-002",2,2010,2320,"Allemant","49.463734936709","3.4530997468354","base.fr"
425,"__cities_.fr.02011-02290-00425","__areas__.fr.002-002",2,2011,2290,"Ambleny","49.373969220779","3.1869712987013","base.fr"
426,"__cities_.fr.02012-02200-00426","__areas__.fr.002-002",2,2012,2200,"Ambrief","49.318561212121","3.4017203030303","base.fr"
427,"__cities_.fr.02013-02190-00427","__areas__.fr.002-002",2,2013,2190,"Amifontaine","49.496025522388","3.922888358209","base.fr"
428,"__cities_.fr.02014-02700-00428","__areas__.fr.002-002",2,2014,2700,"Amigny-Rouy","49.623494","3.296191047619","base.fr"
429,"__cities_.fr.02015-02600-00429","__areas__.fr.002-002",2,2015,2600,"Ancienville","49.222282278481","3.2063313924051","base.fr"
430,"__cities_.fr.02016-02800-00430","__areas__.fr.002-002",2,2016,2800,"Andelain","49.641267966102","3.3680562711864","base.fr"
431,"__cities_.fr.02017-02800-00431","__areas__.fr.002-002",2,2017,2800,"Anguilcourt-le-Sart","49.692421458333","3.42246125","base.fr"
432,"__cities_.fr.02018-02320-00432","__areas__.fr.002-002",2,2018,2320,"Anizy-le-Château","49.50357844086","3.4368411827957","base.fr"
433,"__cities_.fr.02019-02480-00433","__areas__.fr.002-002",2,2019,2480,"Annois","49.713094494382","3.1749291011236","base.fr"
434,"__cities_.fr.02020-02500-00434","__areas__.fr.002-002",2,2020,2500,"Any-Martin-Rieux","49.885616444444","4.2137854444444","base.fr"
435,"__cities_.fr.02021-02360-00435","__areas__.fr.002-002",2,2021,2360,"Archon","49.745009029126","4.1206641747573","base.fr"
436,"__cities_.fr.02022-02130-00436","__areas__.fr.002-002",2,2022,2130,"Arcy-Sainte-Restitue","49.256011610738","3.4730253691275","base.fr"
437,"__cities_.fr.02023-02210-00437","__areas__.fr.002-002",2,2023,2210,"Armentières-sur-Ourcq","49.174456097561","3.387403902439","base.fr"
438,"__cities_.fr.02024-02860-00438","__areas__.fr.002-002",2,2024,2860,"Arrancy","49.499254107143","3.7619894642857","base.fr"
439,"__cities_.fr.02025-02480-00439","__areas__.fr.002-002",2,2025,2480,"Artemps","49.762803402062","3.19675","base.fr"
440,"__cities_.fr.02027-02270-00440","__areas__.fr.002-002",2,2027,2270,"Assis-sur-Serre","49.681881917808","3.5561709589041","base.fr"
441,"__cities_.fr.02028-02840-00441","__areas__.fr.002-002",2,2028,2840,"Athies-sous-Laon","49.57599852459","3.6897718032787","base.fr"
442,"__cities_.fr.02029-02490-00442","__areas__.fr.002-002",2,2029,2490,"Attilly","49.858514601227","3.1507606134969","base.fr"
443,"__cities_.fr.02030-02420-00443","__areas__.fr.002-002",2,2030,2420,"Aubencheul-aux-Bois","50.024230714286","3.2620054761905","base.fr"
444,"__cities_.fr.02031-02500-00444","__areas__.fr.002-002",2,2031,2500,"Aubenton","49.825728513514","4.1860325675676","base.fr"
445,"__cities_.fr.02032-02590-00445","__areas__.fr.002-002",2,2032,2590,"Aubigny-aux-Kaisnes","49.774971956522","3.1166939130435","base.fr"
446,"__cities_.fr.02034-02300-00446","__areas__.fr.002-002",2,2034,2300,"Audignicourt","49.479294204545","3.1276526136364","base.fr"
447,"__cities_.fr.02035-02120-00447","__areas__.fr.002-002",2,2035,2120,"Audigny","49.8677875","3.6311432","base.fr"
448,"__cities_.fr.02036-02220-00448","__areas__.fr.002-002",2,2036,2220,"Augy","49.3428872","3.5143621333333","base.fr"
449,"__cities_.fr.02037-02000-00449","__areas__.fr.002-002",2,2037,2000,"Aulnois-sous-Laon","49.616799295775","3.6115788732394","base.fr"
450,"__cities_.fr.02038-02360-00450","__areas__.fr.002-002",2,2038,2360,"Les Autels","49.759077888889","4.2244906666667","base.fr"
451,"__cities_.fr.02039-02250-00451","__areas__.fr.002-002",2,2039,2250,"Autremencourt","49.703232886598","3.7865328865979","base.fr"
452,"__cities_.fr.02040-02580-00452","__areas__.fr.002-002",2,2040,2580,"Autreppes","49.901117142857","3.8580735714286","base.fr"
453,"__cities_.fr.02041-02300-00453","__areas__.fr.002-002",2,2041,2300,"Autreville","49.58690952381","3.2349544444444","base.fr"
454,"__cities_.fr.02042-02400-00454","__areas__.fr.002-002",2,2042,2400,"Azy-sur-Marne","49.003084054054","3.3564532432432","base.fr"
455,"__cities_.fr.02043-02290-00455","__areas__.fr.002-002",2,2043,2290,"Bagneux","49.457014736842","3.2775655263158","base.fr"
456,"__cities_.fr.02044-02140-00456","__areas__.fr.002-002",2,2044,2140,"Bancigny","49.798542142857","4.0359478571429","base.fr"
457,"__cities_.fr.02046-02000-00457","__areas__.fr.002-002",2,2046,2000,"Barenton-Bugny","49.622032924528","3.6579627358491","base.fr"
458,"__cities_.fr.02047-02000-00458","__areas__.fr.002-002",2,2047,2000,"Barenton-Cel","49.64360775","3.64440775","base.fr"
459,"__cities_.fr.02048-02270-00459","__areas__.fr.002-002",2,2048,2270,"Barenton-sur-Serre","49.670570891089","3.6873561386139","base.fr"
460,"__cities_.fr.02049-02700-00460","__areas__.fr.002-002",2,2049,2700,"Barisis-aux-Bois","49.581615586592","3.3370458100559","base.fr"
461,"__cities_.fr.02050-02170-00461","__areas__.fr.002-002",2,2050,2170,"Barzy-en-Thiérache","50.038678849558","3.7488212389381","base.fr"
462,"__cities_.fr.02051-02850-00462","__areas__.fr.002-002",2,2051,2850,"Barzy-sur-Marne","49.0968636","3.5583081","base.fr"
463,"__cities_.fr.02052-02380-00463","__areas__.fr.002-002",2,2052,2380,"Bassoles-Aulers","49.529196315789","3.3879818421053","base.fr"
464,"__cities_.fr.02053-02330-00464","__areas__.fr.002-002",2,2053,2330,"Vallées en Champagne","49.00022368421","3.6072970394737","base.fr"
465,"__cities_.fr.02054-02220-00465","__areas__.fr.002-002",2,2054,2220,"Bazoches-sur-Vesles","49.304427549669","3.6131138410596","base.fr"
466,"__cities_.fr.02055-02500-00466","__areas__.fr.002-002",2,2055,2500,"Beaumé","49.822525757576","4.1479846969697","base.fr"
467,"__cities_.fr.02056-02300-00467","__areas__.fr.002-002",2,2056,2300,"Beaumont-en-Beine","49.693150632911","3.1326524050633","base.fr"
468,"__cities_.fr.02057-02110-00468","__areas__.fr.002-002",2,2057,2110,"Beaurevoir","49.991178358209","3.3237245522388","base.fr"
469,"__cities_.fr.02058-02160-00469","__areas__.fr.002-002",2,2058,2160,"Beaurieux","49.402979483871","3.7566718709677","base.fr"
470,"__cities_.fr.02059-02800-00470","__areas__.fr.002-002",2,2059,2800,"Beautor","49.647111192661","3.337448440367","base.fr"
471,"__cities_.fr.02060-02590-00471","__areas__.fr.002-002",2,2060,2590,"Beauvois-en-Vermandois","49.834191102362","3.0980542519685","base.fr"
472,"__cities_.fr.02061-02110-00472","__areas__.fr.002-002",2,2061,2110,"Becquigny","50.016260243902","3.4639517073171","base.fr"
473,"__cities_.fr.02062-02400-00473","__areas__.fr.002-002",2,2062,2400,"Belleau","49.082863857143","3.297616","base.fr"
474,"__cities_.fr.02063-02420-00474","__areas__.fr.002-002",2,2063,2420,"Bellenglise","49.925695652174","3.2435236231884","base.fr"
475,"__cities_.fr.02064-02200-00475","__areas__.fr.002-002",2,2064,2200,"Belleu","49.357465128205","3.3391223076923","base.fr"
476,"__cities_.fr.02065-02420-00476","__areas__.fr.002-002",2,2065,2420,"Bellicourt","49.956382","3.230902","base.fr"
477,"__cities_.fr.02066-02440-00477","__areas__.fr.002-002",2,2066,2440,"Benay","49.753337560976","3.3115779268293","base.fr"
478,"__cities_.fr.02067-02450-00478","__areas__.fr.002-002",2,2067,2450,"Bergues-sur-Sambre","50.030286453901","3.7101885815603","base.fr"
479,"__cities_.fr.02068-02250-00479","__areas__.fr.002-002",2,2068,2250,"Berlancourt","49.780025806452","3.7536629032258","base.fr"
480,"__cities_.fr.02069-02340-00480","__areas__.fr.002-002",2,2069,2340,"Berlise","49.665568095238","4.1167171428571","base.fr"
481,"__cities_.fr.02070-02120-00481","__areas__.fr.002-002",2,2070,2120,"Bernot","49.879261016949","3.4945160169492","base.fr"
482,"__cities_.fr.02071-02290-00482","__areas__.fr.002-002",2,2071,2290,"Berny-Rivière","49.415614705882","3.149826372549","base.fr"
483,"__cities_.fr.02072-02820-00483","__areas__.fr.002-002",2,2072,2820,"Berrieux","49.486459591837","3.8463012244898","base.fr"
484,"__cities_.fr.02073-02190-00484","__areas__.fr.002-002",2,2073,2190,"Berry-au-Bac","49.410866275862","3.8879704137931","base.fr"
485,"__cities_.fr.02074-02800-00485","__areas__.fr.002-002",2,2074,2800,"Bertaucourt-Epourdon","49.625507610619","3.4002520353982","base.fr"
486,"__cities_.fr.02075-02240-00486","__areas__.fr.002-002",2,2075,2240,"Berthenicourt","49.777761234568","3.375015308642","base.fr"
487,"__cities_.fr.02076-02190-00487","__areas__.fr.002-002",2,2076,2190,"Bertricourt","49.393891272727","4.0061103636364","base.fr"
488,"__cities_.fr.02077-02200-00488","__areas__.fr.002-002",2,2077,2200,"Berzy-le-Sec","49.322326732673","3.3059389108911","base.fr"
489,"__cities_.fr.02078-02300-00489","__areas__.fr.002-002",2,2078,2300,"Besmé","49.535708974359","3.1624933333333","base.fr"
490,"__cities_.fr.02079-02500-00490","__areas__.fr.002-002",2,2079,2500,"Besmont","49.819519333333","4.1232071666667","base.fr"
491,"__cities_.fr.02080-02870-00491","__areas__.fr.002-002",2,2080,2870,"Besny-et-Loizy","49.591399090909","3.5733685714286","base.fr"
492,"__cities_.fr.02081-02300-00492","__areas__.fr.002-002",2,2081,2300,"Béthancourt-en-Vaux","49.628356122449","3.1432857142857","base.fr"
493,"__cities_.fr.02082-02210-00493","__areas__.fr.002-002",2,2082,2210,"Beugneux","49.225367291667","3.4166329166667","base.fr"
494,"__cities_.fr.02083-02130-00494","__areas__.fr.002-002",2,2083,2130,"Beuvardes","49.128205491803","3.4912586885246","base.fr"
495,"__cities_.fr.02084-02310-00495","__areas__.fr.002-002",2,2084,2310,"Bézu-le-Guéry","49.008685","3.2239040625","base.fr"
496,"__cities_.fr.02085-02400-00496","__areas__.fr.002-002",2,2085,2400,"Bézu-Saint-Germain","49.106202941176","3.4073512941177","base.fr"
497,"__cities_.fr.02086-02300-00497","__areas__.fr.002-002",2,2086,2300,"Bichancourt","49.579891518987","3.2128658227848","base.fr"
498,"__cities_.fr.02087-02290-00498","__areas__.fr.002-002",2,2087,2290,"Bieuxy","49.451885686274","3.2660123529412","base.fr"
499,"__cities_.fr.02088-02860-00499","__areas__.fr.002-002",2,2088,2860,"Bièvres","49.491449354839","3.7170403225806","base.fr"
500,"__cities_.fr.02089-02200-00500","__areas__.fr.002-002",2,2089,2200,"Billy-sur-Aisne","49.356526666667","3.3815737037037","base.fr"
501,"__cities_.fr.02090-02210-00501","__areas__.fr.002-002",2,2090,2210,"Billy-sur-Ourcq","49.224718414634","3.294438902439","base.fr"
502,"__cities_.fr.02091-02160-00502","__areas__.fr.002-002",2,2091,2160,"Blanzy-lès-Fismes","49.337870625","3.6698453125","base.fr"
503,"__cities_.fr.02093-02300-00503","__areas__.fr.002-002",2,2093,2300,"Blérancourt","49.514650746269","3.1594041791045","base.fr"
504,"__cities_.fr.02094-02400-00504","__areas__.fr.002-002",2,2094,2400,"Blesmes","49.029279722222","3.4573719444444","base.fr"
505,"__cities_.fr.02095-02110-00505","__areas__.fr.002-002",2,2095,2110,"Bohain-en-Vermandois","49.987231655172","3.463204137931","base.fr"
506,"__cities_.fr.02096-02270-00506","__areas__.fr.002-002",2,2096,2270,"Bois-lès-Pargny","49.740859242424","3.6531574242424","base.fr"
507,"__cities_.fr.02097-02350-00507","__areas__.fr.002-002",2,2097,2350,"Boncourt","49.620752272727","3.9543927272727","base.fr"
508,"__cities_.fr.02098-02400-00508","__areas__.fr.002-002",2,2098,2400,"Bonneil","49.00941862069","3.3460331034483","base.fr"
509,"__cities_.fr.02099-02400-00509","__areas__.fr.002-002",2,2099,2400,"Bonnesvalyn","49.126761276596","3.3320006382979","base.fr"
510,"__cities_.fr.02100-02420-00510","__areas__.fr.002-002",2,2100,2420,"Bony","49.991154545455","3.2211744155844","base.fr"
511,"__cities_.fr.02101-02250-00511","__areas__.fr.002-002",2,2101,2250,"Bosmont-sur-Serre","49.736248202247","3.8696501123596","base.fr"
512,"__cities_.fr.02102-02860-00512","__areas__.fr.002-002",2,2102,2860,"Bouconville-Vauclair","49.460377663551","3.7553956074766","base.fr"
513,"__cities_.fr.02103-02450-00513","__areas__.fr.002-002",2,2103,2450,"Boué","50.011047956204","3.7060952554744","base.fr"
514,"__cities_.fr.02104-02160-00514","__areas__.fr.002-002",2,2104,2160,"Bouffignereux","49.375388615385","3.8479507692308","base.fr"
515,"__cities_.fr.02105-02400-00515","__areas__.fr.002-002",2,2105,2400,"Bouresches","49.065418163265","3.3146791836735","base.fr"
516,"__cities_.fr.02106-02160-00516","__areas__.fr.002-002",2,2106,2160,"Bourg-et-Comin","49.403443958333","3.659910625","base.fr"
517,"__cities_.fr.02107-02300-00517","__areas__.fr.002-002",2,2107,2300,"Bourguignon-sous-Coucy","49.543143655914","3.1581562365591","base.fr"
518,"__cities_.fr.02108-02000-00518","__areas__.fr.002-002",2,2108,2000,"Bourguignon-sous-Montbavin","49.527169206349","3.5398417460318","base.fr"
519,"__cities_.fr.02109-02140-00519","__areas__.fr.002-002",2,2109,2140,"La Bouteille","49.88304255814","3.9619238372093","base.fr"
520,"__cities_.fr.02110-02220-00520","__areas__.fr.002-002",2,2110,2220,"Braine","49.346143115942","3.533433115942","base.fr"
521,"__cities_.fr.02111-02320-00521","__areas__.fr.002-002",2,2111,2320,"Brancourt-en-Laonnois","49.517477619048","3.4119144444444","base.fr"
522,"__cities_.fr.02112-02110-00522","__areas__.fr.002-002",2,2112,2110,"Brancourt-le-Grand","49.981257702703","3.3967564864865","base.fr"
523,"__cities_.fr.02114-02400-00523","__areas__.fr.002-002",2,2114,2400,"Brasles","49.057569014085","3.4130252112676","base.fr"
524,"__cities_.fr.02115-02000-00524","__areas__.fr.002-002",2,2115,2000,"Braye-en-Laonnois","49.435283846154","3.6123421153846","base.fr"
525,"__cities_.fr.02116-02140-00525","__areas__.fr.002-002",2,2116,2140,"Braye-en-Thiérache","49.767525633803","3.9626309859155","base.fr"
526,"__cities_.fr.02117-02480-00526","__areas__.fr.002-002",2,2117,2480,"Bray-Saint-Christophe","49.775891020408","3.1430436734694","base.fr"
527,"__cities_.fr.02118-02880-00527","__areas__.fr.002-002",2,2118,2880,"Braye","49.42401925","3.37796175","base.fr"
528,"__cities_.fr.02119-02210-00528","__areas__.fr.002-002",2,2119,2210,"Brécy","49.137701587302","3.4225538095238","base.fr"
529,"__cities_.fr.02120-02220-00529","__areas__.fr.002-002",2,2120,2220,"Brenelle","49.365883","3.5467283333333","base.fr"
530,"__cities_.fr.02121-02210-00530","__areas__.fr.002-002",2,2121,2210,"Breny","49.185770923077","3.3452010769231","base.fr"
531,"__cities_.fr.02122-02870-00531","__areas__.fr.002-002",2,2122,2870,"Brie","49.59883516129","3.4744362903226","base.fr"
532,"__cities_.fr.02123-02240-00532","__areas__.fr.002-002",2,2123,2240,"Brissay-Choigny","49.723807132867","3.3910339160839","base.fr"
533,"__cities_.fr.02124-02240-00533","__areas__.fr.002-002",2,2124,2240,"Brissy-Hamégicourt","49.745655675676","3.391085472973","base.fr"
534,"__cities_.fr.02125-02810-00534","__areas__.fr.002-002",2,2125,2810,"Brumetz","49.107380531915","3.1473268085106","base.fr"
535,"__cities_.fr.02126-02360-00535","__areas__.fr.002-002",2,2126,2360,"Brunehamel","49.769320847458","4.1904286440678","base.fr"
536,"__cities_.fr.02127-02130-00536","__areas__.fr.002-002",2,2127,2130,"Bruyères-sur-Fère","49.198129558824","3.4438648529412","base.fr"
537,"__cities_.fr.02128-02860-00537","__areas__.fr.002-002",2,2128,2860,"Bruyères-et-Montbérault","49.518044876033","3.6693202479339","base.fr"
538,"__cities_.fr.02129-02220-00538","__areas__.fr.002-002",2,2129,2220,"Bruys","49.261855287356","3.5662574712644","base.fr"
539,"__cities_.fr.02130-02500-00539","__areas__.fr.002-002",2,2130,2500,"Bucilly","49.865574315068","4.0918596575342","base.fr"
540,"__cities_.fr.02131-02880-00540","__areas__.fr.002-002",2,2131,2880,"Bucy-le-Long","49.38610875","3.393501375","base.fr"
541,"__cities_.fr.02132-02870-00541","__areas__.fr.002-002",2,2132,2870,"Bucy-lès-Cerny","49.578927368421","3.4923201052632","base.fr"
542,"__cities_.fr.02133-02350-00542","__areas__.fr.002-002",2,2133,2350,"Bucy-lès-Pierrepont","49.649594512195","3.9012453658537","base.fr"
543,"__cities_.fr.02134-02500-00543","__areas__.fr.002-002",2,2134,2500,"Buire","49.908323061224","4.0591857142857","base.fr"
544,"__cities_.fr.02135-02620-00544","__areas__.fr.002-002",2,2135,2620,"Buironfosse","49.958679230769","3.8344234965035","base.fr"
545,"__cities_.fr.02136-02140-00545","__areas__.fr.002-002",2,2136,2140,"Burelles","49.773967727273","3.907956","base.fr"
546,"__cities_.fr.02137-02810-00546","__areas__.fr.002-002",2,2137,2810,"Bussiares","49.084625657895","3.2509442105263","base.fr"
547,"__cities_.fr.02138-02200-00547","__areas__.fr.002-002",2,2138,2200,"Buzancy","49.310936666667","3.3482533333333","base.fr"
548,"__cities_.fr.02139-02300-00548","__areas__.fr.002-002",2,2139,2300,"Caillouël-Crépigny","49.61756173913","3.1233510869565","base.fr"
549,"__cities_.fr.02140-02300-00549","__areas__.fr.002-002",2,2140,2300,"Camelin","49.521524867257","3.1296397345133","base.fr"
550,"__cities_.fr.02141-02260-00550","__areas__.fr.002-002",2,2141,2260,"La Capelle","49.972031958763","3.9068597938144","base.fr"
551,"__cities_.fr.02142-02680-00551","__areas__.fr.002-002",2,2142,2680,"Castres","49.803313333333","3.2511955555556","base.fr"
552,"__cities_.fr.02143-02420-00552","__areas__.fr.002-002",2,2143,2420,"Le Catelet","50.000943125","3.24309875","base.fr"
553,"__cities_.fr.02144-02490-00553","__areas__.fr.002-002",2,2144,2490,"Caulaincourt","49.862116598639","3.1097373469388","base.fr"
554,"__cities_.fr.02145-02300-00554","__areas__.fr.002-002",2,2145,2300,"Caumont","49.638674545455","3.1713755844156","base.fr"
555,"__cities_.fr.02146-02330-00555","__areas__.fr.002-002",2,2146,2330,"Celles-lès-Condé","49.014596756757","3.5722243243243","base.fr"
556,"__cities_.fr.02148-02370-00556","__areas__.fr.002-002",2,2148,2370,"Celles-sur-Aisne","49.418210405405","3.4688614864865","base.fr"
557,"__cities_.fr.02149-02240-00557","__areas__.fr.002-002",2,2149,2240,"Cerizy","49.765909850746","3.3339285074627","base.fr"
558,"__cities_.fr.02150-02860-00558","__areas__.fr.002-002",2,2150,2860,"Cerny-en-Laonnois","49.453337681159","3.6813957971014","base.fr"
559,"__cities_.fr.02151-02870-00559","__areas__.fr.002-002",2,2151,2870,"Cerny-lès-Bucy","49.576259777778","3.5456022222222","base.fr"
560,"__cities_.fr.02152-02220-00560","__areas__.fr.002-002",2,2152,2220,"Cerseuil","49.324489565217","3.5173327536232","base.fr"
561,"__cities_.fr.02153-02320-00561","__areas__.fr.002-002",2,2153,2320,"Cessières","49.559913918919","3.5003141891892","base.fr"
562,"__cities_.fr.02154-02200-00562","__areas__.fr.002-002",2,2154,2200,"Chacrise","49.300216311475","3.3932455737705","base.fr"
563,"__cities_.fr.02155-02000-00563","__areas__.fr.002-002",2,2155,2000,"Chaillevois","49.507985208333","3.5243339583333","base.fr"
564,"__cities_.fr.02156-02270-00564","__areas__.fr.002-002",2,2156,2270,"Chalandry","49.674400508475","3.6490988135593","base.fr"
565,"__cities_.fr.02157-02000-00565","__areas__.fr.002-002",2,2157,2000,"Chambry","49.59768","3.6654209859155","base.fr"
566,"__cities_.fr.02158-02860-00566","__areas__.fr.002-002",2,2158,2860,"Chamouille","49.472392564103","3.6689506410256","base.fr"
567,"__cities_.fr.02159-02670-00567","__areas__.fr.002-002",2,2159,2670,"Champs","49.539781119403","3.2595117910448","base.fr"
568,"__cities_.fr.02160-02340-00568","__areas__.fr.002-002",2,2160,2340,"Chaourse","49.706265407407","3.9903824444444","base.fr"
569,"__cities_.fr.02162-02570-00569","__areas__.fr.002-002",2,2162,2570,"La Chapelle-sur-Chézy","48.950612909091","3.3721783636364","base.fr"
570,"__cities_.fr.02163-02310-00570","__areas__.fr.002-002",2,2163,2310,"Charly-sur-Marne","48.976066021505","3.2896332258065","base.fr"
571,"__cities_.fr.02164-02850-00571","__areas__.fr.002-002",2,2164,2850,"Le Charmel","49.108329117647","3.5482717647059","base.fr"
572,"__cities_.fr.02165-02800-00572","__areas__.fr.002-002",2,2165,2800,"Charmes","49.65268877551","3.3844646938776","base.fr"
573,"__cities_.fr.02166-02400-00573","__areas__.fr.002-002",2,2166,2400,"Chartèves","49.090118356164","3.5043587671233","base.fr"
574,"__cities_.fr.02167-02370-00574","__areas__.fr.002-002",2,2167,2370,"Chassemy","49.376989290323","3.4911362580645","base.fr"
575,"__cities_.fr.02168-02400-00575","__areas__.fr.002-002",2,2168,2400,"Château-Thierry","49.055723614458","3.3865122891566","base.fr"
576,"__cities_.fr.02169-02270-00576","__areas__.fr.002-002",2,2169,2270,"Châtillon-lès-Sons","49.758670578512","3.6978932231405","base.fr"
577,"__cities_.fr.02170-02240-00577","__areas__.fr.002-002",2,2170,2240,"Châtillon-sur-Oise","49.792595081967","3.418937704918","base.fr"
578,"__cities_.fr.02171-02160-00578","__areas__.fr.002-002",2,2171,2160,"Chaudardes","49.396597752809","3.7920285393258","base.fr"
579,"__cities_.fr.02172-02200-00579","__areas__.fr.002-002",2,2172,2200,"Chaudun","49.311836486486","3.2507683783784","base.fr"
580,"__cities_.fr.02173-02300-00580","__areas__.fr.002-002",2,2173,2300,"Chauny","49.615112551724","3.2210667586207","base.fr"
581,"__cities_.fr.02174-02000-00581","__areas__.fr.002-002",2,2174,2000,"Chavignon","49.481964126984","3.5198807936508","base.fr"
582,"__cities_.fr.02175-02880-00582","__areas__.fr.002-002",2,2175,2880,"Chavigny","49.4231192","3.3071288","base.fr"
583,"__cities_.fr.02176-02370-00583","__areas__.fr.002-002",2,2176,2370,"Chavonne","49.408430576923","3.5627263461539","base.fr"
584,"__cities_.fr.02177-02860-00584","__areas__.fr.002-002",2,2177,2860,"Chérêt","49.515800714286","3.6895114285714","base.fr"
585,"__cities_.fr.02178-02860-00585","__areas__.fr.002-002",2,2178,2860,"Chermizy-Ailles","49.463324495413","3.7159825688073","base.fr"
586,"__cities_.fr.02179-02220-00586","__areas__.fr.002-002",2,2179,2220,"Chéry-Chartreuve","49.257743300971","3.6069403883495","base.fr"
587,"__cities_.fr.02180-02000-00587","__areas__.fr.002-002",2,2180,2000,"Chéry-lès-Pouilly","49.646913692308","3.5929509230769","base.fr"
588,"__cities_.fr.02181-02360-00588","__areas__.fr.002-002",2,2181,2360,"Chéry-lès-Rozoy","49.723653362069","4.0996128448276","base.fr"
589,"__cities_.fr.02182-02250-00589","__areas__.fr.002-002",2,2182,2250,"Chevennes","49.81825671875","3.7356875","base.fr"
590,"__cities_.fr.02183-02000-00590","__areas__.fr.002-002",2,2183,2000,"Chevregny","49.46714755102","3.5953067346939","base.fr"
591,"__cities_.fr.02184-02270-00591","__areas__.fr.002-002",2,2184,2270,"Chevresis-Monceau","49.764699545455","3.590127987013","base.fr"
592,"__cities_.fr.02185-02810-00592","__areas__.fr.002-002",2,2185,2810,"Chézy-en-Orxois","49.134055333333","3.1601654","base.fr"
593,"__cities_.fr.02186-02570-00593","__areas__.fr.002-002",2,2186,2570,"Chézy-sur-Marne","48.98329","3.3842038317757","base.fr"
594,"__cities_.fr.02187-02400-00594","__areas__.fr.002-002",2,2187,2400,"Chierry","49.036076964286","3.4356235714286","base.fr"
595,"__cities_.fr.02188-02120-00595","__areas__.fr.002-002",2,2188,2120,"Chigny","49.928730422535","3.7725674178404","base.fr"
596,"__cities_.fr.02189-02350-00596","__areas__.fr.002-002",2,2189,2350,"Chivres-en-Laonnois","49.624278518519","3.8525981481482","base.fr"
597,"__cities_.fr.02190-02880-00597","__areas__.fr.002-002",2,2190,2880,"Chivres-Val","49.400324516129","3.4322877419355","base.fr"
598,"__cities_.fr.02191-02000-00598","__areas__.fr.002-002",2,2191,2000,"Chivy-lès-Étouvelles","49.531508360656","3.5881581967213","base.fr"
599,"__cities_.fr.02192-02210-00599","__areas__.fr.002-002",2,2192,2210,"Chouy","49.211511581197","3.2396627777778","base.fr"
600,"__cities_.fr.02193-02130-00600","__areas__.fr.002-002",2,2193,2130,"Cierges","49.162653636364","3.5980371212121","base.fr"
601,"__cities_.fr.02194-02250-00601","__areas__.fr.002-002",2,2194,2250,"Cilly","49.743008703704","3.8327174074074","base.fr"
602,"__cities_.fr.02195-02220-00602","__areas__.fr.002-002",2,2195,2220,"Ciry-Salsogne","49.380997610063","3.4780583647799","base.fr"
603,"__cities_.fr.02196-02000-00603","__areas__.fr.002-002",2,2196,2000,"Clacy-et-Thierret","49.552395263158","3.5654677192983","base.fr"
604,"__cities_.fr.02197-02260-00604","__areas__.fr.002-002",2,2197,2260,"Clairfontaine","49.964072268908","3.9798764705882","base.fr"
605,"__cities_.fr.02198-02880-00605","__areas__.fr.002-002",2,2198,2880,"Clamecy","49.427977073171","3.3688212195122","base.fr"
606,"__cities_.fr.02199-02440-00606","__areas__.fr.002-002",2,2199,2440,"Clastres","49.750332857143","3.225424","base.fr"
607,"__cities_.fr.02200-02340-00607","__areas__.fr.002-002",2,2200,2340,"Clermont-les-Fermes","49.661137209302","3.9427330232558","base.fr"
608,"__cities_.fr.02201-02600-00608","__areas__.fr.002-002",2,2201,2600,"Cœuvres-et-Valsery","49.325733076923","3.1517497115385","base.fr"
609,"__cities_.fr.02203-02210-00609","__areas__.fr.002-002",2,2203,2210,"Coincy","49.155148695652","3.4461209782609","base.fr"
610,"__cities_.fr.02204-02360-00610","__areas__.fr.002-002",2,2204,2360,"Coingt","49.789859354839","4.0890562903226","base.fr"
611,"__cities_.fr.02205-02860-00611","__areas__.fr.002-002",2,2205,2860,"Colligis-Crandelain","49.470786506024","3.6318854216867","base.fr"
612,"__cities_.fr.02206-02120-00612","__areas__.fr.002-002",2,2206,2120,"Colonfay","49.857219574468","3.7112717021277","base.fr"
613,"__cities_.fr.02207-02300-00613","__areas__.fr.002-002",2,2207,2300,"Commenchon","49.641421428571","3.1518716071429","base.fr"
614,"__cities_.fr.02208-02160-00614","__areas__.fr.002-002",2,2208,2160,"Concevreux","49.379649370629","3.781756013986","base.fr"
615,"__cities_.fr.02209-02330-00615","__areas__.fr.002-002",2,2209,2330,"Condé-en-Brie","48.999891818182","3.5634207272727","base.fr"
616,"__cities_.fr.02210-02370-00616","__areas__.fr.002-002",2,2210,2370,"Condé-sur-Aisne","49.394937532468","3.4709675324675","base.fr"
617,"__cities_.fr.02211-02190-00617","__areas__.fr.002-002",2,2211,2190,"Condé-sur-Suippe","49.415318","3.9411524","base.fr"
618,"__cities_.fr.02212-02700-00618","__areas__.fr.002-002",2,2212,2700,"Condren","49.628747444444","3.2786424444445","base.fr"
619,"__cities_.fr.02213-02330-00619","__areas__.fr.002-002",2,2213,2330,"Connigis","49.036101206897","3.5296894827586","base.fr"
620,"__cities_.fr.02214-02680-00620","__areas__.fr.002-002",2,2214,2680,"Contescourt","49.790248518519","3.233424691358","base.fr"
621,"__cities_.fr.02215-02820-00621","__areas__.fr.002-002",2,2215,2820,"Corbeny","49.463493369565","3.8155698913043","base.fr"
622,"__cities_.fr.02216-02600-00622","__areas__.fr.002-002",2,2216,2600,"Corcy","49.253456888889","3.2043091111111","base.fr"
623,"__cities_.fr.02217-02380-00623","__areas__.fr.002-002",2,2217,2380,"Coucy-le-Château-Auffrique","49.516903033708","3.3240505617977","base.fr"
624,"__cities_.fr.02218-02840-00624","__areas__.fr.002-002",2,2218,2840,"Coucy-lès-Eppes","49.554472702703","3.7754366216216","base.fr"
625,"__cities_.fr.02219-02380-00625","__areas__.fr.002-002",2,2219,2380,"Coucy-la-Ville","49.53954173913","3.3385358695652","base.fr"
626,"__cities_.fr.02220-02130-00626","__areas__.fr.002-002",2,2220,2130,"Coulonges-Cohan","49.206018707483","3.6262873469388","base.fr"
627,"__cities_.fr.02221-02310-00627","__areas__.fr.002-002",2,2221,2310,"Coupru","49.029293513514","3.2740537837838","base.fr"
628,"__cities_.fr.02222-02800-00628","__areas__.fr.002-002",2,2222,2800,"Courbes","49.683904047619","3.4575311904762","base.fr"
629,"__cities_.fr.02223-02330-00629","__areas__.fr.002-002",2,2223,2330,"Courboin","48.995327169811","3.50561","base.fr"
630,"__cities_.fr.02224-02220-00630","__areas__.fr.002-002",2,2224,2220,"Courcelles-sur-Vesle","49.340224095238","3.570926952381","base.fr"
631,"__cities_.fr.02225-02810-00631","__areas__.fr.002-002",2,2225,2810,"Courchamps","49.114193478261","3.2604113043478","base.fr"
632,"__cities_.fr.02226-02200-00632","__areas__.fr.002-002",2,2226,2200,"Courmelles","49.343921578947","3.309492368421","base.fr"
633,"__cities_.fr.02227-02130-00633","__areas__.fr.002-002",2,2227,2130,"Courmont","49.142367647059","3.5741469607843","base.fr"
634,"__cities_.fr.02228-02850-00634","__areas__.fr.002-002",2,2228,2850,"Courtemont-Varennes","49.068570909091","3.5417279545455","base.fr"
635,"__cities_.fr.02229-02820-00635","__areas__.fr.002-002",2,2229,2820,"Courtrizy-et-Fussigny","49.517183137255","3.7958433333333","base.fr"
636,"__cities_.fr.02230-02220-00636","__areas__.fr.002-002",2,2230,2220,"Couvrelles","49.336844262295","3.4881647540984","base.fr"
637,"__cities_.fr.02231-02270-00637","__areas__.fr.002-002",2,2231,2270,"Couvron-et-Aumencourt","49.6451866","3.516422","base.fr"
638,"__cities_.fr.02232-02600-00638","__areas__.fr.002-002",2,2232,2600,"Coyolles","49.211532037671","3.0124088013699","base.fr"
639,"__cities_.fr.02233-02130-00639","__areas__.fr.002-002",2,2233,2130,"Cramaille","49.230484390244","3.4567736585366","base.fr"
640,"__cities_.fr.02234-02160-00640","__areas__.fr.002-002",2,2234,2160,"Craonne","49.445147966102","3.7922677966102","base.fr"
641,"__cities_.fr.02235-02160-00641","__areas__.fr.002-002",2,2235,2160,"Craonnelle","49.427264555556","3.7770146666667","base.fr"
642,"__cities_.fr.02236-02380-00642","__areas__.fr.002-002",2,2236,2380,"Crécy-au-Mont","49.487429756098","3.3197959756098","base.fr"
643,"__cities_.fr.02237-02270-00643","__areas__.fr.002-002",2,2237,2270,"Crécy-sur-Serre","49.695799929078","3.6148809929078","base.fr"
644,"__cities_.fr.02238-02870-00644","__areas__.fr.002-002",2,2238,2870,"Crépy","49.604780197368","3.5025260526316","base.fr"
645,"__cities_.fr.02239-02650-00645","__areas__.fr.002-002",2,2239,2650,"Crézancy","49.042480408163","3.5190442857143","base.fr"
646,"__cities_.fr.02240-02110-00646","__areas__.fr.002-002",2,2240,2110,"Croix-Fonsomme","49.933350534351","3.3911838167939","base.fr"
647,"__cities_.fr.02241-02210-00647","__areas__.fr.002-002",2,2241,2210,"La Croix-sur-Ourcq","49.154599807692","3.3504896153846","base.fr"
648,"__cities_.fr.02242-02310-00648","__areas__.fr.002-002",2,2242,2310,"Crouttes-sur-Marne","48.978938571429","3.2431957142857","base.fr"
649,"__cities_.fr.02243-02880-00649","__areas__.fr.002-002",2,2243,2880,"Crouy","49.407677222222","3.365015","base.fr"
650,"__cities_.fr.02244-02120-00650","__areas__.fr.002-002",2,2244,2120,"Crupilly","49.931653552632","3.7542938157895","base.fr"
651,"__cities_.fr.02245-02880-00651","__areas__.fr.002-002",2,2245,2880,"Cuffies","49.405119787234","3.3245114893617","base.fr"
652,"__cities_.fr.02246-02480-00652","__areas__.fr.002-002",2,2246,2480,"Cugny","49.705509435484","3.154432983871","base.fr"
653,"__cities_.fr.02248-02350-00653","__areas__.fr.002-002",2,2248,2350,"Cuirieux","49.687041515152","3.8248165151515","base.fr"
654,"__cities_.fr.02249-02220-00654","__areas__.fr.002-002",2,2249,2220,"Cuiry-Housse","49.28747140625","3.48882234375","base.fr"
655,"__cities_.fr.02250-02160-00655","__areas__.fr.002-002",2,2250,2160,"Cuiry-lès-Chaudardes","49.387100465116","3.7615677906977","base.fr"
656,"__cities_.fr.02251-02360-00656","__areas__.fr.002-002",2,2251,2360,"Cuiry-lès-Iviers","49.766181028037","4.105358317757","base.fr"
657,"__cities_.fr.02252-02160-00657","__areas__.fr.002-002",2,2252,2160,"Cuissy-et-Geny","49.399971505376","3.7107706451613","base.fr"
658,"__cities_.fr.02253-02200-00658","__areas__.fr.002-002",2,2253,2200,"Cuisy-en-Almont","49.417936956522","3.2429549275362","base.fr"
659,"__cities_.fr.02254-02600-00659","__areas__.fr.002-002",2,2254,2600,"Cutry","49.346021463415","3.1835792682927","base.fr"
660,"__cities_.fr.02255-02220-00660","__areas__.fr.002-002",2,2255,2220,"Cys-la-Commune","49.384186060606","3.5739490909091","base.fr"
661,"__cities_.fr.02256-02140-00661","__areas__.fr.002-002",2,2256,2140,"Dagny-Lambercy","49.77418212766","4.051925106383","base.fr"
662,"__cities_.fr.02257-02680-00662","__areas__.fr.002-002",2,2257,2680,"Dallon","49.819843230769","3.2315564615385","base.fr"
663,"__cities_.fr.02258-02470-00663","__areas__.fr.002-002",2,2258,2470,"Dammard","49.144033333333","3.1674886486486","base.fr"
664,"__cities_.fr.02259-02600-00664","__areas__.fr.002-002",2,2259,2600,"Dampleux","49.236095185185","3.1522740740741","base.fr"
665,"__cities_.fr.02260-02800-00665","__areas__.fr.002-002",2,2260,2800,"Danizy","49.667475789474","3.3994615789474","base.fr"
666,"__cities_.fr.02261-02270-00666","__areas__.fr.002-002",2,2261,2270,"Dercy","49.707324222222","3.6848855555555","base.fr"
667,"__cities_.fr.02262-02700-00667","__areas__.fr.002-002",2,2262,2700,"Deuillet","49.628316865672","3.3634420895522","base.fr"
668,"__cities_.fr.02263-02220-00668","__areas__.fr.002-002",2,2263,2220,"Dhuizel","49.3629128","3.6225712","base.fr"
669,"__cities_.fr.02264-02340-00669","__areas__.fr.002-002",2,2264,2340,"Dizy-le-Gros","49.639446315789","4.0250964210526","base.fr"
670,"__cities_.fr.02265-02360-00670","__areas__.fr.002-002",2,2265,2360,"Dohis","49.766401518987","4.1342656962025","base.fr"
671,"__cities_.fr.02266-02360-00671","__areas__.fr.002-002",2,2266,2360,"Dolignon","49.726632792793","4.0870717117117","base.fr"
672,"__cities_.fr.02267-02600-00672","__areas__.fr.002-002",2,2267,2600,"Dommiers","49.32892525","3.213781","base.fr"
673,"__cities_.fr.02268-02310-00673","__areas__.fr.002-002",2,2268,2310,"Domptin","49.014309361702","3.2703782978723","base.fr"
674,"__cities_.fr.02269-02450-00674","__areas__.fr.002-002",2,2269,2450,"Dorengt","49.966957228916","3.7044652409639","base.fr"
675,"__cities_.fr.02270-02590-00675","__areas__.fr.002-002",2,2270,2590,"Douchy","49.790943064516","3.1322280645161","base.fr"
